     3.03           OBSERVATION DATA    M: Mixed            RINEX VERSION / TYPE
Geo++ RINEX Logger  Geo++               20220917 173413 UTC PGM / RUN BY / DATE
************************************************************COMMENT
This file was generated by the Geo++ RINEX Logger App       COMMENT
for Android devices (Version 2.1.6). If you encounter       COMMENT
any issues, please send an email to android@geopp.de        COMMENT
Filtering Mode: BEST                                        COMMENT
************************************************************COMMENT
Geo++                                                       MARKER NAME
GEODETIC                                                    MARKER TYPE
Geo++               Geo++                                   OBSERVER / AGENCY
unknown             Xiaomi              MI 8                REC # / TYPE / VERS
unknown             MI 8                                    ANT # / TYPE
  4410320.9089   193654.2518  4588681.7075                  APPROX POSITION XYZ
        0.0000        0.0000        0.0000                  ANTENNA: DELTA H/E/N
G    8 C1C L1C D1C S1C C5Q L5Q D5Q S5Q                      SYS / # / OBS TYPES
R    4 C1C L1C D1C S1C                                      SYS / # / OBS TYPES
E   12 C1B L1B D1B S1B C1C L1C D1C S1C C5Q L5Q D5Q S5Q      SYS / # / OBS TYPES
C    4 C2I L2I D2I S2I                                      SYS / # / OBS TYPES
J    8 C1C L1C D1C S1C C5Q L5Q D5Q S5Q                      SYS / # / OBS TYPES
  2022     9    17    17    34   31.0002420     GPS         TIME OF FIRST OBS
 24 R01  1 R02 -4 R03  5 R04  6 R05  1 R06 -4 R07  5 R08  6 GLONASS SLOT / FRQ #
    R09 -2 R10 -5 R11  0 R12 -1 R13 -2 R14 -7 R15  0 R16 -1 GLONASS SLOT / FRQ #
    R17  4 R18 -3 R19  3 R20  2 R21  4 R22 -3 R23  3 R24  2 GLONASS SLOT / FRQ #
G L1C                                                       SYS / PHASE SHIFT
G L5Q -0.25000                                              SYS / PHASE SHIFT
R L1C                                                       SYS / PHASE SHIFT
E L1B                                                       SYS / PHASE SHIFT
E L1C +0.50000                                              SYS / PHASE SHIFT
E L5Q -0.25000                                              SYS / PHASE SHIFT
C L2I                                                       SYS / PHASE SHIFT
J L1C                                                       SYS / PHASE SHIFT
J L5Q -0.25000                                              SYS / PHASE SHIFT
 C1C    0.000 C1P    0.000 C2C    0.000 C2P    0.000        GLONASS COD/PHS/BIS
                                                            END OF HEADER
> 2022  9 17 17 34 31.0002420  2  0
> 2022  9 17 17 34 31.0002420  0 16
C21  22433967.288   116819554.6541       1937.477          25.729  
C22  22395122.879   116617281.6591      -1246.106          29.966  
C36  22364366.271   116457123.9201       -979.209          29.268  
E04                                                                                                                                  26326784.646   103311957.3841      -1313.341          26.255  
E05                                                                                                                                  25122425.407    98585793.1241       1914.066          29.076  
E24                                                                                                                                  25876938.568   101546664.6881       2523.065          26.091  
E31                                                                                                                                  23964676.100                         871.559          19.698  
G05  21089028.469   110823591.7721      -1224.658          28.304  
G07  24596964.776                       -2447.182          24.231  
G13  20092198.161   105585213.8241       1080.926          26.403  
G14  21232138.596   111575640.5451        794.503          29.823  
G18  24301599.952   127705768.8851       -408.447          26.241  
G20  22890979.305   120292908.0751      -3044.159          24.152  
G30  22075564.205                       -1877.995          18.081    22075577.096                       -1401.245          27.512  
R02  19443733.883   103755489.0331       -687.580          29.185  
R03  20253269.453                        3190.849          29.033  
> 2022  9 17 17 34 32.0002423  0 16
C21  22433686.382   116818086.742        1936.242          26.198  
C22  22395451.751   116618997.216       -1247.228          29.572  
C36  22364644.179   116458572.406        -980.156          28.835  
E04                                                                                                                                  26327208.853                       -1308.432          26.605  
E05                                                                                                                                  25122029.381    98584232.599        1913.459          28.997  
E24                                                                                                                                  25876384.852   101544495.244        2522.378          25.898  
E31                                                                                                                                  23964542.093                         874.365          22.348  
G05  21089354.344   110825290.474       -1226.076          28.836  
G07  24597522.090   129260842.3121      -2447.678          23.854  
G13  20092077.944   105584606.624        1079.826          26.936  
G14  21232079.537   111575320.010         793.161          29.947  
G18  24301764.538   127706651.647        -410.137          27.448  
G20  22891644.844                       -3045.217          23.633  
G30  22076002.202                       -1869.132          19.070    22076027.384    86631059.8271      -1401.429          27.500  
R02  19443952.432   103756657.948        -688.990          29.497  
R03  20252757.108   108414627.6571       3190.106          28.679  
> 2022  9 17 17 34 33.0002426  0 15
C21  22433405.177   116816619.486        1935.586          27.918  
C22  22395782.123   116620713.524       -1247.978          30.518  
C36  22364920.887   116460021.798        -981.063          31.093  
E04                                                                                                                                  26327631.560   103315280.8111      -1309.030          27.224  
E05                                                                                                                                  25121630.657    98582672.372        1913.163          29.146  
E24                                                                                                                                  25875832.034   101542326.199        2521.980          25.934  
E31                                                                                                                                  23964409.584    94041491.5111        874.683          21.762  
G05  21089678.719   110826990.278       -1227.178          29.694  
G13  20091956.228   105584000.295        1078.956          27.036  
G14  21232021.977   111575000.398         792.238          27.312  
G18  24301935.720   127707535.363        -411.090          29.249  
G20  22892316.079                       -3044.093          20.565  
G30  22076457.287                       -1878.617          17.884    22076471.677    86632814.894       -1402.132          26.191  
R02  19444168.882   103757827.763        -689.890          27.547  
R03  20252233.670   108411919.835        3189.266          28.695  
> 2022  9 17 17 34 34.0002430  0 16
C21  22433154.550   116815309.281        1934.643          29.073  
C22  22396142.773   116622586.875       -1248.912          34.039  
C36  22365232.672   116461628.028        -981.791          32.292  
E04                                                                                                                                  26328085.146   103317060.785       -1309.394          26.736  
E05                                                                                                                                  25121262.812    98581230.112        1912.839          26.845  
E24                                                                                                                                  25875309.196   101540275.437        2521.342          25.477  
E31                                                                                                                                  23964309.754    94041088.258         873.833          21.244  
G05  21090038.170   110828848.312       -1227.865          29.294  
G07  24598660.102   129266841.5771      -2448.416          27.205  
G13  20091872.586   105583552.296        1078.166          28.899  
G14  21231990.499                         789.345          24.924  
G18  24302130.885   127708577.664        -412.133          29.444  
G20  22893019.992                       -3040.022          18.460  
G30  22076961.538                       -1884.923          21.247    22076953.143                       -1404.137          25.338  
R02  19444415.611   103759158.994        -691.331          28.578  
R03  20251770.491   108409373.376        3188.384          29.952  
> 2022  9 17 17 34 35.0002433  0 17
C21  22432870.947                        1937.301          26.575  
C22  22396474.643   116624304.613       -1249.409          32.162  
C36  22365511.479   116463078.600        -982.243          31.302  
E04                                                                                                                                  26328508.453   103318723.331       -1309.611          25.376  
E05                                                                                                                                  25120863.488    98579670.569        1912.479          28.725  
E09                                                                                                                                  23474289.987    92118155.6041        227.376          30.060  
E24                                                                                                                                  25874754.880   101538107.082        2521.290          24.072  
E31                                                                                                                                  23964179.344                         870.445          17.794  
G05  21090358.349   110830549.795       -1228.858          29.357  
G07  24599210.521   129269762.810       -2448.607          29.283  
G13  20091759.864   105582947.305        1077.617          32.214  
G14  21231930.540   111574522.7761        790.204          24.943  
G18  24302301.767   127709463.077        -412.787          28.657  
G20  22893698.722                       -3040.127          15.066  
G30  22077397.436                       -1882.304          21.819    22077395.937    86636443.5281      -1402.403          24.149  
R02  19444639.556   103760331.006        -692.086          30.000  
R03  20251273.435   108406666.995        3187.825          29.894  
> 2022  9 17 17 34 36.0002436  0 17
C21  22432593.938                        1932.471          26.979  
C22  22396804.715   116626023.563       -1250.621          31.990  
C36  22365785.789                        -983.831          29.520  
E04                                                                                                                                  26328932.060   103320386.556       -1310.289          25.829  
E05                                                                                                                                  25120468.062    98578111.714        1911.790          31.407  
E09                                                                                                                                  23474321.465    92118281.975         226.564          29.016  
E24                                                                                                                                  25874204.161   101535939.553        2520.464          24.971  
E31                                                                                                                                  23964042.938                         873.173          24.377  
G05  21090675.829   110832252.783       -1230.362          25.947  
G07  24599763.638   129272684.998       -2449.562          30.811  
G13  20091648.941   105582343.970        1075.961          31.754  
G14  21231870.582                         787.680          23.829  
G18  24302475.346   127710349.913        -414.210          29.977  
G20  22894367.859                       -3045.028          15.626  
G30  22077835.433                       -1874.941          20.239    22077848.324                       -1404.436          25.384  
R02  19444871.596   103761504.323        -693.392          29.853  
R03  20250761.090   108403961.816        3186.623          34.346  
> 2022  9 17 17 34 37.0002439  0 19
C21  22432319.029   116810915.1651       1932.029          28.604  
C22  22397133.887   116627743.413       -1251.520          30.280  
C36  22366066.994   116465982.9611       -984.260          29.737  
E04                                                                                                                                  26329358.065   103322050.252       -1310.762          25.508  
E05                                                                                                                                  25120069.638    98576553.200        1911.449          32.571  
E09                                                                                                                                  23474354.443    92118408.869         226.041          27.432  
E24                                                                                                                                  25873652.243   101533772.615        2519.873          25.317  
E31                                                                                                                                  23963913.728                         873.333          26.228  
G05  21090999.005                       -1231.846          23.705  
G07  24600321.552   129275607.582       -2449.958          31.522  
G08                                                                  25310126.064                        -272.405          19.906  
G13  20091534.120   105581740.533        1076.063          32.388  
G14  21231803.728                         786.691          19.768  
G15  21299462.089   111929428.7091       2955.622          27.400  
G18  24302638.733   127711237.785        -415.246          30.226  
G20  22895019.908                       -3049.276          10.294  
G30  22078269.832                       -1868.854          18.001    22078292.316                       -1404.414          23.107  
R02  19445089.545   103762678.771        -694.523          28.956  
R03  20250267.332   108401257.652        3185.608          36.145  
> 2022  9 17 17 34 38.0002443  0 19
C21  22432063.905   116809608.102        1931.502          28.910  
C22  22397495.137   116629619.953       -1252.101          29.698  
C36  22366378.179   116467592.253        -984.853          29.211  
E04                                                                                                                                  26329810.751   103323831.835       -1311.003          26.135  
E05                                                                                                                                  25119702.692    98575112.589        1911.190          32.907  
E09                                                                                                                                  23474415.900    92118653.740         225.709          26.570  
E24                                                                                                                                  25873127.906   101531723.559        2519.636          25.095  
E31                                                                                                                                  23963808.201    94039092.7571        871.139          25.759  
G05  21091352.461                       -1232.062          23.914  
G07  24600909.745   129278687.929       -2450.178          31.577  
G08                                                                  25310313.734                        -270.388          20.323  
G13  20091447.181   105581295.712        1074.989          32.425  
G14  21231775.847                         785.669          17.653  
G15  21299020.195   111927104.213        2954.664          27.695  
G18  24302838.995   127712283.891        -415.938          29.962  
G20  22895712.728                       -3050.620          11.188  
G30  22078758.793                       -1874.564          18.907    22078773.183                       -1404.809          22.479  
R02  19445341.970   103764014.202        -695.531          28.797  
R03  20249792.460   108398714.588        3184.989          35.827  
> 2022  9 17 17 34 39.0002446  0 18
C21  22431785.098   116808145.693        1930.738          29.012  
C22  22397823.709   116631341.147       -1252.864          29.425  
C36  22366656.086   116469046.073        -985.490          29.707  
E04                                                                                                                                  26330234.958   103325496.164       -1311.394          26.472  
E05                                                                                                                                  25119305.467    98573554.639        1910.886          32.854  
E09                                                                                                                                  23474448.577    92118781.418         225.258          26.765  
E24                                                                                                                                  25872578.686   101529557.174        2519.320          24.994  
E31                                                                                                                                  23963678.690    94038574.728         870.964          26.536  
G05  21091681.932                       -1233.607          23.066  
G07  24601464.960   129281611.076       -2450.521          31.447  
G08                                                                  25310471.125                        -268.445          19.711  
G13  20091334.159   105580694.084        1074.255          32.492  
G14  21231734.476                         783.922          16.946  
G15  21298543.225   111924623.008        2953.831          27.695  
G18  24303005.979   127713173.334        -416.817          29.596  
G30  22079200.687                       -1884.012          18.484    22079220.174    86643589.7341      -1404.794          21.868  
R02  19445553.324   103765190.595        -696.469          28.778  
R03  20249279.515   108396011.808        3184.224          36.004  
> 2022  9 17 17 34 40.0002449  0 18
C21  22431504.193   116806683.624        1930.399          29.344  
C22  22398155.879                       -1253.730          29.400  
C36  22366934.294   116470500.247        -985.845          29.870  
E04                                                                                                                                  26330657.665   103327160.534       -1311.435          25.185  
E05                                                                                                                                  25118909.141    98571996.847        1910.726          32.998  
E09                                                                                                                                  23474483.054    92118909.319         225.034          28.384  
E24                                                                                                                                  25872027.668   101527391.058        2519.051          24.072  
E31                                                                                                                                  23963544.983    94038057.072         870.591          26.296  
G05  21092002.411                       -1236.409          22.343  
G07  24602021.975   129284534.131       -2450.429          32.008  
G08                                                                  25310631.514                        -270.412          19.480  
G13  20091218.439   105580092.844        1073.866          32.651  
G14  21231660.427                         782.417          18.706  
G15  21298078.247   111922142.003        2953.631          27.806  
G18  24303175.662   127714063.349        -417.389          30.147  
G30  22079670.762                       -1889.754          19.967    22079671.961    86645347.742       -1405.072          22.827  
R02  19445771.872   103766367.677        -697.157          28.743  
R03  20248780.661   108393309.426        3183.826          35.436  
> 2022  9 17 17 34 41.0002452  0 19
C21  22431220.589   116805222.542        1929.411          27.936  
C22  22398490.148   116634785.2801      -1254.282          29.619  
C36  22367213.101   116471955.126        -986.549          29.140  
E04                                                                                                                                  26331089.066   103328825.247       -1311.777          22.742  
E05                                                                                                                                  25118512.516    98570439.445        1910.337          33.385  
E09                                                                                                                                  23474513.033    92119037.642         224.612          29.152  
E24                                                                                                                                  25871472.752   101525225.321        2518.672          25.356  
E31                                                                                                                                  23963416.072    94037540.082         869.925          26.868  
G05  21092326.486                       -1237.145          20.466  
G07  24602576.291   129287457.827       -2451.070          30.574  
G08                                                                  25310790.404                        -274.049          19.599  
G13  20091107.516   105579492.494        1072.975          32.829  
G14  21231597.171                         782.802          18.691  
G15  21297605.175                        2951.757          28.683  
G18  24303349.541   127714954.398        -418.423          29.589  
G20  22897734.228                       -3051.440          18.895  
G30  22080106.660                       -1885.788          20.403    22080118.352                       -1406.409          22.804  
R02  19445996.417   103767545.895        -698.294          28.938  
R03  20248278.808   108390607.979        3182.891          35.764  
> 2022  9 17 17 34 42.0002456  0 19
C21  22430978.357                        1925.446          25.506  
C22  22398849.299   116636664.780       -1255.061          31.312  
C36  22367523.985   116473567.243        -987.678          28.015  
E04                                                                                                                                  26331542.053   103330608.530       -1312.703          20.340  
E05                                                                                                                                  25118144.670    98569000.168        1909.858          33.133  
E09                                                                                                                                  23474574.790    92119284.265         223.957          28.605  
E24                                                                                                                                  25870949.914   101523177.881        2518.020          24.442  
E31                                                                                                                                  23963310.246    94037141.561         869.101          26.975  
G05  21092684.438                       -1235.415          17.021  
G07  24603164.184   129290539.515       -2451.520          29.794  
G08                                                                  25310978.674                        -274.247          19.238  
G13  20091019.677   105579050.523        1072.139          31.326  
G14  21231566.592                         784.976          18.701  
G15  21297162.981   111917340.6011       2952.002          27.720  
G18  24303548.603   127716004.064        -419.498          30.073  
G20  22898447.734                       -3055.006          19.511  
G30  22080578.234                       -1881.378          17.841    22080600.119                       -1403.001          20.884  
R02  19446254.838   103768885.267        -699.472          31.053  
R03  20247797.042   108388067.918        3181.986          36.908  
> 2022  9 17 17 34 43.0002459  0 18
C21  22430701.349   116802459.3431       1927.513          23.807  
C22  22399180.270   116638389.257       -1256.148          32.547  
C36  22367805.191   116475024.123        -988.551          29.776  
E04                                                                                                                                  26331962.961   103332274.468       -1313.003          22.477  
E05                                                                                                                                  25117748.045    98567443.804        1909.298          34.264  
E09                                                                                                                                  23474606.268    92119413.923         223.277          27.565  
E24                                                                                                                                  25870398.896   101521013.364        2517.452          24.236  
E31                                                                                                                                  23963182.534    94036626.039         868.457          26.228  
G07  24603722.098   129293464.295       -2452.154          30.747  
G08                                                                  25311140.862                        -276.046          20.380  
G13  20090905.156   105578452.046        1071.104          31.923  
G14  21231519.825                         775.684          17.186  
G15  21296692.906   111914861.753        2951.474          27.166  
G18  24303713.789   127716897.387        -420.697          28.801  
G20  22899116.571                       -3055.276          17.300  
G30  22081031.220                       -1870.446          14.031    22081045.610                       -1407.798          23.817  
R02  19446467.391   103770066.007        -700.815          30.177  
R03  20247291.891   108385368.459        3180.903          35.554  
> 2022  9 17 17 34 44.0002462  0 19
C21  22430427.038                        1925.368          21.109  
C22  22399510.941   116640114.456       -1256.869          32.585  
C36  22368085.497   116476481.646        -989.193          29.734  
E04                                                                                                                                  26332389.266   103333940.764       -1313.361          23.330  
E05                                                                                                                                  25117351.419    98565887.704        1909.035          34.275  
E09                                                                                                                                  23474641.644    92119544.116         222.742          27.990  
E24                                                                                                                                  25869846.978   101518849.251        2517.048          24.106  
E31                                                                                                                                  23963053.323    94036111.187         867.787          25.909  
G05  21093339.485                       -1240.036          24.479  
G07  24604279.112   129296389.432       -2452.511          31.076  
G08                                                                  25311297.953                        -278.544          20.691  
G13  20090792.134   105577854.360        1070.312          32.683  
G14  21231456.568                         770.799          15.632  
G15  21296221.633   111912384.066        2950.313          28.081  
G18  24303884.971                        -422.392          28.394  
G20  22899795.302                       -3057.568          17.058  
G30  22081484.506                       -1871.930          14.628    22081497.098    86652502.3391      -1406.908          22.537  
R02  19446695.233   103771247.779        -701.847          28.782  
R03  20246788.240   108382669.840        3180.062          36.160  
> 2022  9 17 17 34 45.0002465  0 19
C21  22430156.326                        1924.639          21.473  
C22  22399841.612   116641840.503       -1257.717          32.681  
C36  22368366.102   116477939.991        -990.016          29.832  
E04                                                                                                                                  26332813.473   103335607.481       -1313.782          24.431  
E05                                                                                                                                  25116955.693    98564332.061        1908.578          33.988  
E09                                                                                                                                  23474674.921    92119674.759         222.293          28.259  
E24                                                                                                                                  25869295.659   101516685.497        2516.689          23.905  
E31                                                                                                                                  23962918.717    94035596.970         867.152          26.837  
G05  21093668.057   110847923.6961      -1238.830          23.364  
G07  24604833.428   129299315.018       -2452.960          30.728  
G08                                                                  25311459.241                        -276.771          19.431  
G13  20090681.211   105577257.427        1069.558          32.573  
G14  21231390.914                         776.308          18.700  
G15  21295749.759   111909907.098        2949.593          27.321  
G18  24304057.351   127718687.1611       -422.464          28.709  
G20  22900453.346                       -3055.187          17.297  
G30                                                                  22081944.088                       -1407.199          21.032  
R02  19446911.983   103772430.572        -702.868          29.197  
R03  20246283.689   108379972.106        3179.178          36.039  
> 2022  9 17 17 34 46.0002469  0 19
C21  22429901.502                        1921.658          21.263  
C22  22400202.862   116643723.452       -1258.510          32.301  
C36  22368677.887   116479555.103        -990.673          29.921  
E04                                                                                                                                  26333268.857   103337392.161       -1314.101          24.006  
E05                                                                                                                                  25116588.747    98562894.354        1908.287          34.221  
E09                                                                                                                                  23474737.577    92119923.535         221.804          28.290  
E24                                                                                                                                  25868773.421   101514639.949        2516.129          24.658  
E31                                                                                                                                  23962817.986    94035201.050         866.500          26.725  
G05  21094017.615                       -1239.626          21.989  
G07  24605418.323   129302398.557       -2453.371          30.468  
G08                                                                  25311647.811                        -270.940          19.511  
G13  20090599.068   105576818.847        1068.748          32.504  
G14  21231372.027                         775.252          18.623  
G15  21295308.165   111907588.443        2948.824          27.249  
G18  24304258.212   127719740.836        -423.507          28.903  
G20  22901155.760                       -3056.192          19.164  
G30                                                                  22082425.255    86656141.4751      -1408.084          21.214  
R02  19447161.710   103773774.400        -703.929          29.059  
R03  20245814.814   108377435.652        3178.379          36.105  
> 2022  9 17 17 34 47.0002472  0 18
C21  22429619.398                        1927.344          21.239  
C22  22400535.332   116645450.741       -1258.960          32.178  
C36  22368958.192   116481014.611        -991.179          29.813  
E04                                                                                                                                  26333692.764   103339059.581       -1314.485          23.949  
E05                                                                                                                                  25116193.021    98561339.177        1908.112          33.849  
E09                                                                                                                                  23474770.854    92120054.818         221.651          28.616  
E24                                                                                                                                  25868224.201   101512476.871        2516.012          24.411  
E31                                                                                                                                  23962687.277    94034687.754         866.231          26.995  
G05  21094341.991                       -1240.268          21.951  
G07  24605976.237   129305324.568       -2453.385          30.128  
G13  20090486.646   105576223.123        1068.350          32.626  
G14  21231325.559                         777.556          19.020  
G15  21294839.589   111905112.530        2948.539          27.915  
G18  24304426.696   127720637.431        -423.969          28.835  
G20  22901826.395                       -3057.567          19.320  
G30                                                                  22082872.246                       -1408.480          20.335  
R02  19447380.259   103774958.985        -704.659          29.525  
R03  20245304.567   108374739.166        3177.930          35.852  
> 2022  9 17 17 34 48.0002475  0 19
C21  22429338.192                        1928.555          20.985  
C22  22400868.402   116647177.396       -1258.326          32.555  
C36  22369237.899   116482473.336        -990.395          30.219  
E04                                                                                                                                  26334117.270   103340726.083       -1313.567          24.207  
E05                                                                                                                                  25115796.696    98559783.243        1908.869          33.895  
E09                                                                                                                                  23474805.630    92120185.545         222.208          28.292  
E24                                                                                                                                  25867671.384   101510313.115        2516.691          24.769  
E31                                                                                                                                  23962557.766    94034173.971         866.718          26.906  
G05  21094671.163                       -1239.043          21.696  
G07  24606535.650   129308249.534       -2452.340          30.196  
G08                                                                  25311973.086                        -278.361          19.340  
G13  20090372.125   105575626.741        1069.008          32.368  
G14  21231248.812                         778.264          20.111  
G15  21294359.921   111902635.932        2949.223          27.629  
G18  24304595.179   127721533.606        -423.549          29.028  
G20  22902499.729                       -3046.994          19.925  
G30                                                                  22083322.534    86659663.1351      -1407.501          20.378  
R02  19447605.703   103776143.115        -704.205          29.493  
R03  20244807.511   108372042.006        3178.604          35.797  
> 2022  9 17 17 34 49.0002478  0 19
C21  22429065.681                        1927.256          20.666  
C22  22401199.672   116648904.601       -1258.875          32.514  
C36  22369518.804   116483932.606        -990.940          30.098  
E04                                                                                                                                  26334542.975   103342392.902       -1313.884          23.867  
E05                                                                                                                                  25115399.471    98558227.490        1908.688          33.887  
E09                                                                                                                                  23474837.108    92120316.557         221.923          28.068  
E24                                                                                                                                  25867122.164   101508149.643        2516.407          24.545  
E31                                                                                                                                  23962425.258    94033660.695         866.211          26.942  
G05  21094991.641                       -1238.666          21.123  
G07  24607090.865   129311174.652       -2452.492          30.066  
G08                                                                  25312130.177                        -272.083          19.439  
G13  20090257.004   105575030.885        1068.482          32.355  
G14  21231201.445                         782.390          19.654  
G15  21293894.044   111900159.827        2948.731          27.329  
G18  24304766.960   127722429.979        -423.748          29.170  
G20  22903168.566                       -3050.425          19.475  
G30                                                                  22083769.225                       -1408.753          20.880  
R02  19447822.453   103777328.089        -705.049          29.657  
R03  20244305.359   108369345.431        3178.019          35.718  
> 2022  9 17 17 34 50.0002482  0 18
C21  22428815.354                        1919.622          20.348  
C22  22401561.222   116650789.084       -1260.044          32.495  
C36  22369826.991   116485549.091        -992.046          30.100  
E04                                                                                                                                  26335000.159   103344177.960       -1314.477          23.778  
E05                                                                                                                                  25115032.825    98556790.076        1907.994          33.948  
E09                                                                                                                                  23474902.463    92120565.977         221.160          27.859  
E24                                                                                                                                  25866599.326   101506104.624        2515.599          24.325  
E31                                                                                                                                  23962326.926    94033266.044         865.231          26.715  
G05  21095352.291                       -1243.899          21.489  
G07  24607675.761   129314258.138       -2453.318          29.894  
G08                                                                  25312318.447                        -273.159          18.901  
G13  20090172.163   105574593.715        1067.339          32.401  
G14  21231158.575                         778.334          19.288  
G15  21293453.949   111897842.408        2947.588          27.322  
G18  24304969.320   127723485.701        -425.554          29.321  
G30                                                                  22084247.394    86663303.0421      -1408.576          21.076  
R02  19448083.572   103778674.473        -706.484          29.933  
R03  20243827.490   108366810.495        3176.860          35.971  
> 2022  9 17 17 34 51.0002485  0 17
C21  22428521.857                        1920.500          23.526  
C22  22401893.992   116652518.644       -1261.231          31.917  
C36  22370105.798                        -993.726          29.998  
E04                                                                                                                                  26335421.367   103345846.071       -1315.176          26.910  
E05                                                                                                                                  25114639.197    98555235.594        1907.416          35.312  
E09                                                                                                                                  23474934.841    92120698.443         220.469          24.825  
E24                                                                                                                                  25866049.806   101503942.527        2515.032          23.120  
E31                                                                                                                                  23962196.816    94032754.558         864.421          23.286  
G05  21095680.564   110858520.2461      -1243.088          26.446  
G07  24608231.576   129317185.426       -2454.663          27.205  
G13  20090059.441   105574000.179        1066.161          30.536  
G14  21231100.415   111570220.2181        774.424          26.225  
G15  21292985.073   111895368.624        2946.410          26.396  
G18  24305144.399   127724385.158        -426.831          28.622  
G30                                                                  22084692.585    86665066.037       -1410.060          23.222  
R02  19448308.116   103779862.415        -708.018          30.985  
R03  20243326.836   108364116.358        3175.581          34.710  
> 2022  9 17 17 34 52.0002488  0 17
C21  22428230.459   116789661.8791       1921.972          27.522  
C22  22402225.262   116654248.752       -1261.778          32.282  
C36  22370387.603   116488472.6821       -993.689          29.723  
E04                                                                                                                                  26335845.274   103347514.596       -1315.590          30.107  
E05                                                                                                                                  25114241.972    98553681.367        1907.162          34.197  
E09                                                                                                                                  23474971.715    92120831.546         219.831          29.197  
E24                                                                                                                                  25865497.589   101501780.873        2514.589          25.679  
E31                                                                                                                                  23962063.109    94032243.565         863.928          23.133  
G05  21096008.837   110860236.920       -1244.048          27.892  
G07  24608787.391                       -2456.447          22.422  
G13  20089950.317   105573407.172        1065.633          32.611  
G14  21231050.350   111569918.821         774.023          30.963  
G15  21292512.600                        2943.817          24.627  
G18  24305312.582   127725285.369        -427.584          28.722  
G30  22085132.081   116058076.1371      -1885.504          31.145  
R02  19448537.458   103781051.169        -708.828          33.954  
R03  20242825.583   108361422.823        3174.980          35.366  
> 2022  9 17 17 34 53.0002491  0 18
C21  22427956.149   116788209.217        1920.991          28.439  
C22  22402558.032   116655979.864       -1262.783          32.754  
C36  22370667.609   116489935.608        -994.596          30.335  
E04                                                                                                                                  26336270.679   103349183.466       -1315.935          29.699  
E05                                                                                                                                  25113845.646    98552127.620        1906.682          33.862  
E09                                                                                                                                  23475005.592    92120965.046         219.436          29.835  
E24                                                                                                                                  25864948.968   101499619.694        2514.114          27.389  
E31                                                                                                                                  23961935.697    94031733.253         863.247          25.151  
G05  21096330.514   110861954.780       -1245.234          27.235  
G07  24609345.605                       -2457.334          20.061  
G13  20089835.796   105572815.142        1064.656          32.752  
G14  21230992.790   111569618.665         772.782          30.551  
G15  21292041.926                        2945.860          22.523  
G18  24305482.864   127726186.723        -428.728          30.022  
G20  22905900.275                       -3057.934          19.977  
G30  22085585.667   116060437.157       -1888.394          31.448  
R02  19448748.212   103782241.107        -710.014          35.710  
R03  20242317.735   108358730.261        3174.006          36.022  
> 2022  9 17 17 34 54.0002495  0 18
C21  22427707.921   116786913.132        1920.525          29.017  
C22  22402920.481   116657867.554       -1263.251          32.791  
C36  22370979.393   116491555.038        -994.991          29.683  
E04                                                                                                                                  26336725.764   103350970.202       -1316.155          29.649  
E05                                                                                                                                  25113479.900    98550691.666        1906.534          33.855  
E09                                                                                                                                  23475070.047    92121216.441         219.185          30.458  
E24                                                                                                                                  25864426.430   101497576.362        2513.912          28.331  
E31                                                                                                                                  23961834.967    94031340.968         862.865          25.859  
G05  21096686.968   110863830.772       -1245.825          27.107  
G07  24609929.300                       -2457.144          18.842  
G13  20089754.552   105572381.128        1064.182          33.068  
G14  21230966.408   111569476.791         772.042          30.631  
G15  21291606.328                        2944.227          22.483  
G18  24305689.421   127727246.162        -429.272          30.429  
G20  22906585.901                       -3054.582          20.646  
G30  22086065.935   116062956.005       -1888.680          31.357  
R02  19449016.526   103783591.728        -710.721          35.584  
R03  20241831.172   108356198.729        3173.457          35.842  
> 2022  9 17 17 34 55.0002498  0 18
C21  22427429.713   116785461.487        1919.974          28.925  
C22  22403252.951   116659599.693       -1263.810          32.953  
C36  22371259.699   116493018.831        -995.463          29.446  
E04                                                                                                                                  26337151.769   103352639.401       -1316.264          29.313  
E05                                                                                                                                  25113083.574    98549138.213        1906.389          33.873  
E09                                                                                                                                  23475102.725    92121350.483         218.893          30.237  
E24                                                                                                                                  25863875.711   101495415.648        2513.649          28.457  
E31                                                                                                                                  23961703.358    94030831.523         862.380          26.022  
G05  21097012.842   110865549.977       -1246.579          26.630  
G07  24610491.711                       -2457.607          17.633  
G13  20089642.730   105571790.036        1063.718          32.896  
G14  21230911.246   111569178.040         771.377          30.726  
G15  21291132.056                        2945.528          22.377  
G18  24305861.502   127728148.749        -429.960          30.470  
G20  22907250.540                       -3051.427          18.028  
G30  22086516.823   116065317.688       -1889.057          31.373  
R02  19449233.876   103784783.149        -711.495          35.229  
R03  20241344.609   108353507.251        3172.921          35.502  
> 2022  9 17 17 34 56.0002501  0 18
C21  22427150.607   116784010.670        1919.147          29.246  
C22  22403585.720   116661332.654       -1264.631          32.660  
C36  22371543.003   116494483.433        -996.273          29.139  
E04                                                                                                                                  26337576.275   103354309.188       -1316.852          29.580  
E05                                                                                                                                  25112690.246    98547585.209        1905.939          33.980  
E09                                                                                                                                  23475138.700    92121485.028         218.390          30.010  
E24                                                                                                                                  25863325.292   101493255.353        2513.229          27.887  
E31                                                                                                                                  23961574.747    94030322.711         861.747          26.057  
G05  21097342.314   110867270.252       -1247.648          26.248  
G07  24611055.021                       -2461.210          18.234  
G13  20089530.008   105571199.825        1062.837          32.860  
G14  21230853.986   111568880.391         770.274          30.550  
G15  21290665.579                        2944.132          21.325  
G18  24306029.086   127729052.406        -431.031          30.201  
G20  22907908.585                       -3048.356          15.652  
G30  22086965.312   116067680.036       -1889.722          31.663  
R02  19449454.523   103785975.732        -712.658          35.283  
R03  20240836.460   108350816.652        3172.042          35.241  
> 2022  9 17 17 34 57.0002504  0 18
C21  22426872.399   116782559.923        1919.076          29.151  
C22  22403919.689   116663066.213       -1265.230          32.975  
C36  22371822.110   116495948.538        -996.775          29.487  
E04                                                                                                                                  26338004.379   103355979.138       -1317.015          29.822  
E05                                                                                                                                  25112293.021    98546032.371        1905.773          33.878  
E09                                                                                                                                  23475171.977    92121619.932         218.031          30.238  
E24                                                                                                                                  25862774.874   101491095.339        2512.949          27.522  
E31                                                                                                                                  23961443.738    94029814.366         861.280          26.324  
G05  21097670.587                       -1248.828          26.624  
G07  24611607.239                       -2460.708          17.954  
G13  20089416.087   105570610.212        1062.239          32.910  
G14  21230795.826   111568583.611         769.406          30.527  
G15  21290189.209                        2944.254          21.101  
G18  24306205.064   127729956.734        -431.703          30.512  
G20  22908584.317                       -3047.124          13.750  
G30  22087413.202   116070042.749       -1890.088          31.511  
R02  19449675.470   103787169.212        -713.555          35.337  
R03  20240336.107   108348126.689        3171.407          35.220  
> 2022  9 17 17 34 58.0002508  0 18
C21  22426622.972   116781266.349        1918.013          29.154  
C22  22404282.138   116664956.465       -1265.813          32.882  
C36  22372133.294   116497570.271        -997.294          28.910  
E04                                                                                                                                  26338458.265   103357766.903       -1317.185          30.015  
E05                                                                                                                                  25111928.773    98544597.430        1905.521          33.973  
E09                                                                                                                                  23475236.132    92121872.786         217.726          29.856  
E24                                                                                                                                  25862256.832   101489053.247        2512.672          27.916  
E31                                                                                                                                  23961344.506    94029424.093         860.854          25.877  
G05  21098027.340   110870870.4441      -1249.041          26.722  
G07  24612187.337                       -2459.272          18.025  
G13  20089332.145   105570178.606        1061.774          32.682  
G14  21230768.845   111568445.141         768.638          30.562  
G15  21289760.505                        2941.758          21.317  
G18  24306404.426   127731019.244        -432.341          30.171  
G20  22909286.431                       -3046.399          13.158  
G30  22087892.270   116072563.402       -1890.485          31.079  
R02  19449921.300   103788523.417        -714.306          34.848  
R03  20239865.433   108345597.779        3170.836          35.214  
> 2022  9 17 17 34 59.0002511  0 17
C21  22426343.865   116779817.370        1917.308          29.815  
C22  22404615.507   116666691.339       -1266.545          32.728  
C36  22372416.298   116499036.572        -997.972          28.551  
E04                                                                                                                                  26338884.270   103359437.379       -1317.541          29.751  
E05                                                                                                                                  25111532.148    98543045.156        1905.209          34.061  
E09                                                                                                                                  23475270.908    92122008.393         217.328          29.973  
E24                                                                                                                                  25861704.614   101486893.962        2512.221          27.893  
E31                                                                                                                                  23961216.495    94028916.773         860.254          26.086  
G05  21098356.812                       -1249.942          26.464  
G07  24612749.748                       -2454.201          17.019  
G13  20089220.322   105569590.211        1061.021          32.964  
G14  21230713.383   111568150.057         767.710          30.706  
G15  21289290.431                        2943.034          21.048  
G18  24306574.109   127731925.152        -433.282          30.073  
G30  22088339.861   116074927.016       -1890.988          31.208  
R02  19450155.438   103789718.637        -715.295          35.108  
R03  20239359.983   108342909.092        3170.131          35.135  
> 2022  9 17 17 35  0.0002514  0 16
C21  22426068.356   116778368.847        1916.852          29.939  
C22  22404949.176   116668426.660       -1266.991          32.733  
C36  22372697.804   116500503.293        -998.391          28.812  
E04                                                                                                                                  26339308.776   103361108.018       -1317.703          29.786  
E05                                                                                                                                  25111136.122    98541492.934        1905.156          34.098  
E09                                                                                                                                  23475305.384    92122144.293         217.035          30.076  
