     3.03           OBSERVATION DATA    M: Mixed            RINEX VERSION / TYPE
Geo++ RINEX Logger  Geo++               20220917 181930 UTC PGM / RUN BY / DATE
************************************************************COMMENT
This file was generated by the Geo++ RINEX Logger App       COMMENT
for Android devices (Version 2.1.6). If you encounter       COMMENT
any issues, please send an email to android@geopp.de        COMMENT
Filtering Mode: MORE                                        COMMENT
************************************************************COMMENT
Geo++                                                       MARKER NAME
GEODETIC                                                    MARKER TYPE
Geo++               Geo++                                   OBSERVER / AGENCY
unknown             Xiaomi              MI 8                REC # / TYPE / VERS
unknown             MI 8                                    ANT # / TYPE
  4410324.6499   193655.0044  4588689.9496                  APPROX POSITION XYZ
        0.0000        0.0000        0.0000                  ANTENNA: DELTA H/E/N
G    8 C1C L1C D1C S1C C5Q L5Q D5Q S5Q                      SYS / # / OBS TYPES
R    4 C1C L1C D1C S1C                                      SYS / # / OBS TYPES
E   12 C1B L1B D1B S1B C1C L1C D1C S1C C5Q L5Q D5Q S5Q      SYS / # / OBS TYPES
C    4 C2I L2I D2I S2I                                      SYS / # / OBS TYPES
J    8 C1C L1C D1C S1C C5Q L5Q D5Q S5Q                      SYS / # / OBS TYPES
  2022     9    17    18    19   48.9999929     GPS         TIME OF FIRST OBS
 24 R01  1 R02 -4 R03  5 R04  6 R05  1 R06 -4 R07  5 R08  6 GLONASS SLOT / FRQ #
    R09 -2 R10 -5 R11  0 R12 -1 R13 -2 R14 -7 R15  0 R16 -1 GLONASS SLOT / FRQ #
    R17  4 R18 -3 R19  3 R20  2 R21  4 R22 -3 R23  3 R24  2 GLONASS SLOT / FRQ #
G L1C                                                       SYS / PHASE SHIFT
G L5Q -0.25000                                              SYS / PHASE SHIFT
R L1C                                                       SYS / PHASE SHIFT
E L1B                                                       SYS / PHASE SHIFT
E L1C +0.50000                                              SYS / PHASE SHIFT
E L5Q -0.25000                                              SYS / PHASE SHIFT
C L2I                                                       SYS / PHASE SHIFT
J L1C                                                       SYS / PHASE SHIFT
J L5Q -0.25000                                              SYS / PHASE SHIFT
 C1C    0.000 C1P    0.000 C2C    0.000 C2P    0.000        GLONASS COD/PHS/BIS
                                                            END OF HEADER
> 2022  9 17 18 19 48.9999929  0 22
C07  39920357.412   207875776.2641       -207.772          25.640  
C10  39160236.333                         192.350          23.638  
C21  22026700.133   114698771.381         476.688          32.832  
C22  23601941.916                       -2414.523          21.988  
C36  23375125.837                       -1915.526          21.041  
E05                                                                  24178841.536   127060670.0251       1951.180          30.905    24178845.134    94882980.910        1456.942          27.070  
E09                                                                  23794202.416   125039377.6001       -646.843          33.756    23794210.511    93373592.111        -483.013          28.262  
E24                                                                  24583891.126                        2479.465          21.735    24583892.925                        1854.653          18.573  
E31                                                                  23951650.717                        -189.207          22.015  
G05  22368676.687                       -2697.300          24.028  
G13  20108752.101   105672285.327        -254.883          33.178  
G14  21547933.676   113235148.299       -1062.668          29.637  
G15  20329465.004   106832058.890        1633.340          32.366  
G17  24178650.269   127059663.7991       2814.841          28.165  
G24  22630045.346                        3380.237          20.258    22630053.140    88805188.7921       2523.224          29.465  
G30  23453899.903   123251075.002       -2482.258          31.287    23453907.098    92038168.9641      -1853.601          27.793  
R02  20526883.734                       -2593.164          16.817  
R03  19288069.947   103250547.793        1405.174          30.172  
R04  22315270.160                        4311.405          22.708  
R14  22563110.084                        4176.660          15.452  
R20  24028694.981                        -830.717          21.222  
R21  24230615.694   129662918.4221       2432.112          27.340  
> 2022  9 17 18 19 49.9999932  0 23
C07  39920488.121   207876449.409        -204.815          26.154  
C10  39160286.098                         197.574          23.073  
C21  22026700.433   114698760.505         479.206          32.102  
C22  23602492.035                       -2410.293          20.307  
C36  23375588.117                       -1916.901          18.821  
E04                                                                                                                                  27611407.021                       -1695.105          18.592  
E05                                                                  24178559.132   127059188.600        1954.050          30.324    24178562.729    94881874.506        1459.339          28.108  
E09                                                                  23794413.770   125040494.329        -644.103          33.410    23794421.565    93374426.058        -481.012          27.619  
E24                                                                  24583510.390   129187210.7971       2481.397          20.927    24583507.092                        1853.149          18.697  
E31                                                                  23951774.232   125867346.4461       -187.911          22.937    23951782.026    93991943.0961       -140.294          25.839  
G05  22369287.664   117551357.1141      -2695.174          25.969  
G13  20108892.703   105673010.341        -252.389          33.198  
G14  21548226.873                       -1058.772          27.210  
G15  20329245.856   106830895.730        1635.786          34.206  
G17  24178204.477                        2819.680          27.979  
G24  22629485.034                        3381.204          20.958    22629500.323    88803016.373        2525.355          29.903  
G30  23454462.314   123254027.099       -2479.470          31.254    23454469.209    92040373.398       -1851.500          27.523  
R02  20527464.132                       -2587.227          15.436  
R03  19287897.566   103249621.816        1407.420          30.129  
R04  22314546.761                        4316.892          23.392  
R14  22562464.931                        4173.827          15.290  
R20  24028956.100                        -833.184          21.204  
R21  24230258.041                        2436.662          26.988  
> 2022  9 17 18 19 50.9999934  0 22
C07  39920587.652   207876962.612        -200.983          25.808  
C10  39160296.891                         202.529          22.218  
C21  22026665.956   114698589.988         482.736          33.749  
C22  23603013.973                       -2405.767          17.055  
C36  23376013.822                       -1912.017          18.291  
E05                                                                  24178249.146   127057545.752        1957.932          30.608    24178249.446    94880647.884        1461.912          25.419  
E09                                                                  23794593.945   125041449.718        -640.305          34.841    23794602.939    93375139.407        -478.058          27.598  
E24                                                                  24583098.475                        2480.617          19.860    24583093.978                        1859.989          19.931  
E31                                                                  23951869.266                        -182.576          24.982    23951876.461                        -135.870          27.193  
G05  22369863.865                       -2689.365          24.862  
G13  20109000.329   105673574.081        -248.656          33.276  
G14  21548488.592   113238053.4501      -1056.662          26.798  
G15  20328991.032   106829571.353        1639.460          35.100  
G17  24177724.210   127054812.8141       2821.505          28.172  
G24  22628894.742                        3387.664          20.076    22628916.327    88800723.346        2528.317          28.921  
G30  23454993.546   123256817.549       -2475.366          31.624    23454999.841    92042457.178       -1848.489          27.629  
R02  20528021.746                       -2575.630          13.885  
R03  19287691.909   103248531.871        1410.908          30.272  
R04  22313794.282                        4323.349          24.000  
R14  22561779.005                        4173.821          17.042  
R20  24029151.565                        -828.551          21.724  
R21  24229857.818                        2439.803          25.917  
> 2022  9 17 18 19 51.9999937  0 21
C07  39920714.165                        -195.533          25.677  
C10  39160351.453                         202.096          20.556  
C21  22026660.560   114698572.023         486.295          35.093  
C22  23603578.483                       -2405.930          14.820  
C36  23376472.805                       -1902.048          16.353  
E05                                                                  24177967.641   127056056.573        1961.805          29.810    24177963.444                        1465.717          21.343  
E09                                                                  23794805.299   125042558.725        -636.381          34.418    23794816.092    93375967.641        -475.299          28.298  
E24                                                                  24582711.443                        2489.744          20.348    24582708.745                        1861.769          21.383  
E31                                                                  23951997.277                        -178.436          22.744    23952000.875    93992803.6861       -134.862          29.077  
G05  22370457.455   117557524.1741      -2687.754          23.876  
G13  20109135.535   105674291.679        -244.972          33.072  
G14  21548777.592   113239579.124       -1053.049          27.758  
G15  20328769.486   106828400.933        1643.046          33.370  
G17  24177276.020   127052459.951        2825.489          27.921  
G24  22628354.216                        3395.307          18.393    22628362.611    88798545.100        2531.181          27.943  
G30  23455552.059   123259761.528       -2471.353          32.656    23455559.554    92044655.547       -1845.434          27.409  
R03  19287514.731   103247598.916        1414.399          30.379  
R04  22313079.277                        4329.556          23.386  
R14  22561048.711                        4181.956          17.259  
R20  24029384.803                        -818.952          22.326  
R21  24229490.273                        2442.938          25.787  
> 2022  9 17 18 19 52.9999940  0 22
C07  39920838.878                        -194.821          25.988  
C10  39160407.214                         208.656          20.013  
C21  22026657.862   114698552.214         488.138          34.992  
C22  23604116.310                       -2408.162          14.805  
C36  23376920.095                       -1899.052          13.667  
E05                                                                  24177680.140   127054565.277        1963.922          29.586  
E09                                                                  23795018.751   125043665.727        -634.376          34.361    23795025.047    93376794.256        -473.680          27.793  
E24                                                                  24582325.310                        2490.797          20.352    24582326.509                        1862.371          21.516  
E31                                                                  23952125.588                        -178.521          21.443    23952123.190    93993289.880        -133.258          28.770  
G05  22371057.639                       -2684.169          22.599  
G13  20109272.840   105675007.304        -243.000          32.877  
G14  21549063.893   113241103.106       -1051.355          28.576  
G15  20328547.340   106827228.672        1644.887          33.125  
G17  24176829.329   127050105.049        2827.528          27.322  
G24  22627803.498                        3398.872          14.557    22627806.795                        2532.994          26.635  
G30  23456111.472   123262703.236       -2469.082          32.659    23456118.667    92046852.260       -1843.779          26.548  
R02  20529123.783                       -2562.563          12.303  
R03  19287338.154   103246664.306        1416.054          30.268  
R04  22312366.370                        4328.626          24.421  
R14  22560322.614                        4185.547          15.815  
R20  24029622.838                        -815.853          22.574  
R21  24229127.824   129654925.6801       2443.340          26.787  
> 2022  9 17 18 19 53.9999942  0 21
C07  39920939.609   207878797.1371       -194.049          26.511  
C10  39160434.495                         208.456          20.239  
C21  22026621.887   114698376.159         488.274          35.167  
C30  26749898.231                        2595.574          23.118  
C36  23377342.503                       -1898.039          16.124  
E05                                                                  24177369.256   127052915.916        1964.445          30.146  
E09                                                                  23795197.428   125044614.803        -633.992          34.712    23795204.623    93377502.974        -473.429          29.020  
E24                                                                  24581921.490                        2492.537          20.772    24581910.398                        1857.420          22.360  
E31                                                                  23952214.027   125869643.3421       -178.233          21.020    23952217.925    93993658.263        -133.093          29.856  
G05  22371632.641                       -2687.807          21.905  
G13  20109380.466   105675565.188        -242.800          32.937  
G14  21549321.115   113242469.332       -1051.142          28.889  
G15  20328291.617   106825898.684        1645.072          33.412  
G17  24176351.460   127047592.112        2828.021          27.211  
G24  22627213.506                        3403.018          14.944    22627221.301    88794067.2121       2533.211          27.413  
G30  23456639.706   123265486.764       -2468.445          32.641    23456649.599    92048930.960       -1843.410          27.160  
R03  19287129.198   103245569.191        1416.078          30.357  
R04  22311636.076   119477732.8001       4326.699          25.172  
R14  22559577.629                        4192.587          14.528  
R20  24029832.993                        -824.301          22.598  
R21  24228732.997   129652803.135        2443.395          27.299  
> 2022  9 17 18 19 54.9999945  0 20
C07  39921065.821   207879459.288        -193.821          27.034  
C10  39160476.166                         205.107          20.086  
C21  22026620.688   114698356.346         488.142          35.182  
C22  23605182.072                       -2410.884          15.222  
C30  26749489.614                        2594.537          23.735  
E05                                                                  24177081.455   127051424.025        1964.516          30.110  
E09                                                                  23795408.182   125045721.369        -633.940          34.587    23795416.876    93378329.300        -473.391          28.977  
E24                                                                  24581523.665   129176811.9321       2490.924          19.887    24581529.361                        1861.223          22.297  
E31                                                                  23952337.842                        -177.159          19.849    23952340.540    93994144.315        -133.117          30.021  
G05  22372231.626                       -2686.068          22.056  
G13  20109512.074   105676280.684        -242.870          32.846  
G14  21549614.013   113243992.750       -1050.792          28.857  
G15  20328070.370   106824726.340        1644.970          33.446  
G17  24175909.266   127045236.035        2828.703          26.689  
G24  22626628.311                        3397.472          15.454    22626665.785    88791886.878        2533.269          27.709  
G30  23457200.318   123268427.597       -2468.207          32.472    23457209.911    92051126.997       -1843.102          27.633  
R03  19286967.011   103244634.889        1415.745          30.451  
R04  22310927.966                        4327.069          25.943  
R20  24030058.737                        -825.939          21.966  
R21  24228370.848   129650841.287        2443.123          27.008  
> 2022  9 17 18 19 55.9999947  0 22
C07  39921161.455                        -192.083          27.660  
C10  39160504.347                         204.666          19.807  
C21  22026587.711   114698179.878         488.688          34.969  
C22  23605706.410                       -2405.582          17.530  
C30  26749048.919                        2596.037          24.546  
C36  23378213.999                       -1901.843          21.559  
E05                                                                  24176766.373   127049773.652        1965.457          29.937    24176770.570                        1472.974          18.793  
E09                                                                  23795589.856   125046669.578        -633.124          34.709    23795595.552    93379037.403        -472.812          29.061  
E24                                                                  24581109.352                        2492.101          20.475    24581115.948    96461556.2881       1859.177          20.054  
E31                                                                  23952432.276   125870786.9821       -177.683          20.134    23952432.876    93994512.341        -132.736          31.958  
G05  22372800.632   117569840.5321      -2684.597          24.919  
G13  20109618.801   105676838.000        -242.233          32.798  
G14  21549876.031   113245358.609       -1050.775          28.484  
G15  20327814.947   106823395.921        1645.503          34.844  
G17  24175427.500   127042722.232        2828.888          25.982  
G24                                                                  22626076.093    88789588.265        2533.903          28.551  
G30  23457730.651   123271209.877       -2467.196          31.239    23457739.645    92053204.657       -1842.369          28.554  
R03  19286749.061   103243539.762        1416.090          31.300  
R04  22310180.883   119469881.0121       4327.790          27.263  
R14  22558251.647                        4184.443          20.161  
R20  24030281.782                        -822.925          22.828  
R21  24227964.030   129648718.598        2443.539          27.665  
> 2022  9 17 18 19 56.9999950  0 22
C07  39921287.368   207880624.4781       -191.750          27.886  
C10  39160550.515                         203.653          21.553  
C21  22026577.817   114698158.883         489.324          34.964  
C22  23606261.026                       -2399.532          15.720  
C30  26748636.404                        2596.965          24.545  
C36  23378678.678                       -1901.706          23.313  
E05                                                                  24176487.266   127048279.850        1966.428          30.439    24176484.268                        1470.985          20.114  
E09                                                                  23795800.910   125047774.412        -632.208          35.328    23795807.805    93379862.467        -472.129          29.240  
E24                                                                  24580728.016                        2493.059          21.191  
E31                                                                  23952552.493   125871436.409        -176.801          18.483    23952556.390    93994997.238        -131.962          32.948  
G05  22373403.515   117572996.846       -2683.688          25.653  
G13  20109756.705   105677552.118        -241.492          33.287  
G14  21550165.631   113246881.474       -1050.239          28.501  
G15  20327592.501   106822222.360        1646.187          34.995  
G17  24174979.310   127040364.848        2830.009          27.703  
G24  22625525.375                        3392.962          22.289    22625521.178    88787406.527        2534.672          28.058  
G30  23458288.865   123274148.583       -2466.080          30.329    23458298.158    92055399.146       -1841.554          27.785  
R03  19286581.777   103242604.659        1416.546          31.353  
R04  22309466.778   119466033.899        4328.725          27.129  
R14  22557535.143                        4189.477          20.963  
R20  24030525.513                        -822.543          23.138  
R21  24227596.184   129646755.773        2444.100          28.030  
> 2022  9 17 18 19 57.9999953  0 22
C07  39921415.379   207881283.998        -191.191          28.186  
C10  39160599.081                         207.032          20.941  
C21  22026579.616   114698137.649         489.564          35.140  
C22  23606805.149                       -2396.034          10.948  
C30  26748231.984   139285075.0641       2596.513          23.593  
C36  23379134.962                       -1899.822          22.806  
E05                                                                  24176197.667   127046785.535        1966.941          30.316    24176198.866                        1467.862          19.516  
E09                                                                  23796010.465   125048878.854        -631.816          35.103    23796017.060    93380687.182        -471.780          29.396  
E24                                                                  24580348.479   129170593.9361       2493.335          21.979  
E31                                                                                                                                  23952679.005    93995482.008        -131.835          32.917  
G05  22374004.299   117576152.917       -2683.445          26.382  
G13  20109885.316   105678265.992        -241.247          33.084  
G14  21550457.629   113248404.179       -1050.080          28.175  
G15  20327371.254   106821048.605        1646.382          35.128  
G17  24174531.120   127038007.101        2830.373          27.593  
G24  22624962.364                        3397.203          22.745    22624965.063    88785224.404        2535.059          27.853  
G30  23458846.778   123277086.794       -2465.586          30.148    23458856.971    92057593.240       -1841.159          27.975  
R03  19286398.604   103241669.585        1416.518          31.309  
R04  22308737.083   119462186.368        4329.144          27.759  
R14  22556774.570                        4189.497          21.388  
R20  24030786.333                        -823.361          22.696  
R21  24227224.442   129644792.842        2444.206          28.066  
> 2022  9 17 18 19 58.9999955  0 22
C07  39921511.912   207881788.084        -191.867          28.554  
C10  39160611.673                         216.652          19.300  
C21  22026545.740   114697961.463         488.406          35.161  
C27  26918761.429                         967.317          11.988  
C30  26747791.589                        2594.944          22.947  
C36  23379555.570                       -1897.676          23.071  
E05                                                                  24175887.981   127045134.493        1966.126          30.185    24175887.681                        1466.765          17.872  
E09                                                                  23796190.640   125049826.622        -632.684          35.225    23796197.835    93381394.935        -472.463          29.104  
E24                                                                  24579931.767                        2492.082          20.820  
E31                                                                                                                                  23952774.639    93995849.843        -132.546          32.975  
G05  22374578.701   117579152.397       -2684.396          26.669  
G13  20109998.638   105678823.326        -242.251          32.728  
G14  21550712.752   113249770.391       -1051.127          28.397  
G15  20327116.730   106819718.374        1645.315          35.125  
G17  24174049.953   127035492.623        2829.563          27.775  
G24  22624368.775   118891846.5101       3394.008          23.199    22624380.168    88782925.196        2534.497          27.914  
G30  23459374.413   123279867.961       -2466.083          29.798    23459388.503    92059670.154       -1841.624          27.167  
R03  19286191.747   103240575.456        1415.091          31.291  
R04  22308002.591   119458178.981        4328.462          27.858  
R14  22556063.162                        4182.908          20.963  
R20  24031025.867                        -821.762          22.828  
R21  24226823.619   129642670.766        2442.926          28.363  
> 2022  9 17 18 19 59.9999958  0 23
C07  39921640.224   207882448.829        -192.416          28.591  
C10  39160661.138                         218.314          19.481  
C21  22026538.844   114697942.355         487.437          35.231  
C27  26918668.793                         969.235          12.252  
C30  26747387.169                        2594.524          24.084  
C36  23380007.957                       -1900.060          22.497  
E04                                                                                                                                  27616495.398                       -1693.816          20.334  
E05                                                                  24175601.080   127043641.709        1965.410          30.161  
E09                                                                  23796400.495   125050932.792        -633.544          35.332    23796406.790    93382220.941        -473.071          29.401  
E24                                                                  24579545.035                        2490.541          20.626  
E31                                                                                                                                  23952896.954    93996335.972        -133.193          32.976  
G05  22375180.385   117582310.142       -2685.119          26.794  
G13  20110133.844   105679539.132        -243.180          33.423  
G14  21551004.750   113251295.265       -1052.249          28.482  
G15  20326895.783   106818546.685        1644.315          34.961  
G17  24173600.265   127033136.337        2828.911          27.273  
G24  22623812.061                        3392.979          23.713    22623824.652    88780744.185        2533.946          27.910  
G30  23459934.725   123282807.393       -2466.805          29.507    23459945.817    92061865.152       -1842.063          27.362  
R03  19286014.870   103239642.838        1414.061          31.267  
R04  22307281.590   119454332.936        4327.657          28.365  
R14  22555351.755                        4182.732          21.619  
R20  24031247.713                        -825.422          22.383  
R21  24226462.369   129640710.229        2441.812          28.069  
> 2022  9 17 18 20  0.9999960  0 23
C07  39921737.956   207882953.751        -192.702          28.376  
C10  39160685.721                         207.171          19.669  
C21  22026506.467   114697767.825         486.750          35.181  
C30  26746945.875                        2594.101          24.865  
C36  23380432.763                       -1900.721          22.200  
E04                                                                                                                                  27616987.957                       -1689.312          19.385  
E05                                                                  24175288.096   127041991.759        1965.034          30.479  
E09                                                                  23796581.270   125051881.841        -633.965          35.530    23796587.565    93382929.655        -473.424          29.935  
E24                                                                  24579130.722                        2490.740          21.231  
E31                                                                                                                                  23952991.389    93996704.948        -133.686          33.055  
G05  22375749.091   117585310.790       -2685.564          26.634  
G13  20110240.270   105680097.990        -243.774          33.057  
G14  21551264.370   113252663.239       -1052.889          28.539  
G15  20326645.756   106817218.137        1643.631          35.359  
G17  24173120.597                        2827.881          27.389  
G24  22623231.363                        3392.632          23.425    22623238.558    88778445.797        2533.678          28.060  
G30  23460464.458   123285589.464       -2466.988          29.473    23460474.651    92063942.677       -1842.235          27.534  
R02  20533593.389                       -2574.604          18.766  
R03  19285812.810   103238550.720        1413.081          31.533  
R04  22306539.904   119450326.672        4327.339          27.950  
R14  22554631.354                        4186.934          22.030  
R20  24031471.359                        -826.099          21.804  
R21  24226068.442   129638590.052        2441.027          27.861  
> 2022  9 17 18 20  1.9999963  0 23
C07  39921867.466   207883614.853        -192.772          28.468  
C10  39160747.778                         203.652          18.988  
C21  22026500.471   114697749.831         486.324          35.178  
C30  26746542.054                        2593.766          24.403  
C36  23380890.546                       -1901.368          22.480  
E04                                                                                                                                  27617508.097   108376933.4721      -1691.568          20.121  
E05                                                                  24175003.293   127040499.600        1964.785          30.530  
E09                                                                  23796793.822   125052988.642        -634.175          35.480    23796798.619    93383756.183        -473.594          29.513  
E24                                                                  24578752.084                        2491.216          20.941  
E31                                                                                                                                  23953115.503    93997191.726        -133.843          33.025  
G05  22376344.779                       -2686.193          26.423  
G13  20110372.479   105680814.821        -244.205          33.073  
G14  21551556.368   113254189.324       -1053.459          28.861  
G15  20326421.511   106816047.567        1643.196          35.240  
G17  24172676.604   127028267.4241       2828.293          27.246  
G24  22622672.250                        3394.453          22.808    22622683.042    88776265.164        2533.568          28.190  
G30  23461023.871   123288529.134       -2467.044          29.470    23461036.462    92066137.951       -1842.339          27.580  
R02  20534160.596                       -2582.092          17.394  
R03  19285645.525   103237619.793        1412.371          31.307  
R04  22305821.901   119446481.007        4327.278          27.792  
R14  22553931.038                        4186.312          22.214  
R20  24031693.805                        -827.746          21.788  
R21  24225706.892   129636630.972        2440.355          28.216  
> 2022  9 17 18 20  2.9999966  0 23
C07  39921989.182   207884275.930        -192.748          28.527  
C10  39160793.047                         202.576          19.471  
C21  22026498.073   114697732.318         485.842          35.212  
C30  26746131.339                        2593.593          23.862  
C36  23381343.533                       -1901.925          21.918  
E04                                                                                                                                  27618031.834                       -1691.974          20.064  
E05                                                                  24174720.889   127039007.434        1964.792          30.763  
E09                                                                  23797003.977   125054095.675        -634.407          35.536    23797009.073    93384582.812        -473.694          29.566  
E24                                                                  24578366.251                        2489.821          20.756  
E31                                                                  23953250.110                        -185.589          17.636    23953239.617    93997678.817        -134.157          33.095  
G05  22376953.358   117591628.2051      -2686.215          26.560  
G13  20110510.084   105681532.023        -244.575          32.949  
G14  21551848.366   113255715.879       -1053.929          28.896  
G15  20326197.566   106814877.474        1642.719          35.204  
G17  24172226.016   127025911.901        2828.149          27.110  
G24  22622118.833                        3390.742          22.727    22622126.328    88774084.667        2533.432          27.624  
G30  23461583.584   123291468.866       -2467.105          29.283    23461593.177    92068333.144       -1842.257          27.595  
R02  20534687.332                       -2579.478          19.094  
R03  19285476.442   103236689.397        1411.839          31.401  
R04  22305105.097                        4326.771          27.819  
R14  22553247.512                        4184.052          22.110  
R20  24031945.330                        -830.600          21.551  
R21  24225346.841   129634672.488        2439.759          28.073  
> 2022  9 17 18 20  3.9999968  0 24
C07  39922091.411   207884781.419        -193.269          28.360  
C10  39160810.135                         209.271          20.306  
C21  22026467.194   114697559.695         484.843          35.268  
C30  26745696.640                        2592.911          22.781  
C36  23381760.244                       -1903.178          22.077  
E04                                                                                                                                  27618522.295   108380905.1951      -1691.913          20.737  
E05                                                                  24174409.105   127037358.406        1964.112          30.719  
E09                                                                  23797183.253   125055045.909        -635.150          35.394    23797190.148    93385292.485        -474.382          29.623  
E24                                                                  24577951.938                        2488.496          20.572  
E31                                                                                                                                  23953333.752    93998048.925        -134.818          33.016  
G05  22377524.162                       -2687.653          26.748  
G13  20110621.007   105682092.601        -245.494          33.142  
G14  21552113.682   113257085.903       -1054.940          28.942  
G15  20325947.539   106813550.777        1641.781          35.082  
G17  24171745.449   127023399.649        2827.336          27.017  
G18  25143948.407                       -1788.542           9.739  
G24  22621532.739                        3389.869          22.939    22621542.032    88771786.972        2532.986          27.832  
G30  23462110.319   123294251.614       -2467.664          28.832    23462123.510    92070411.118       -1842.684          27.802  
R02  20535261.434                       -2573.015          19.491  
R03  19285275.282   103235599.804        1410.556          31.704  
R04  22304356.215   119438630.1991       4326.422          27.944  
R14  22552517.217                        4183.075          22.402  
R20  24032194.158                        -826.261          21.663  
R21  24224946.618   129632554.645        2438.694          28.440  
> 2022  9 17 18 20  4.9999971  0 23
C07  39922217.024   207885443.974        -194.226          28.174  
C10  39160856.303                         207.725          19.479  
C21  22026462.997   114697544.452         483.573          35.154  
C30  26745284.425                        2591.469          22.752  
C36  23382219.526                       -1900.882          21.677  
E04                                                                                                                                  27619039.437   108382950.795       -1692.665          20.786  
E05                                                                  24174125.201   127035868.000        1963.032          30.560  
E09                                                                  23797395.806   125056154.849        -636.314          35.537    23797399.703    93386120.492        -475.073          29.532  
E24                                                                  24577574.799                        2487.375          21.357  
E31                                                                                                                                  23953458.766    93998537.524        -135.664          33.159  
G05  22378125.546   117597791.0041      -2688.120          26.346  
G13  20110757.113   105682811.926        -246.699          33.335  
G14  21552402.682   113258614.852       -1056.324          29.254  
G15  20325722.695   106812382.922        1640.481          35.194  
G17  24171297.559   127021045.930        2826.345          26.559  
G24  22620979.921                        3390.397          23.284    22620986.517    88769607.738        2532.169          27.854  
G30  23462673.029   123297192.769       -2468.530          29.085    23462682.323    92072607.444       -1843.391          27.570  
R02  20535814.851                       -2576.845          20.551  
R03  19285096.905   103234672.217        1409.030          31.540  
R04  22303641.810   119434786.382        4325.429          27.666  
R14  22551819.001                        4183.801          23.362  
R20  24032418.703                        -829.916          21.329  
R21  24224574.876   129630598.757        2437.162          28.204  
> 2022  9 17 18 20  5.9999974  0 23
C07  39922345.635   207886107.219        -194.915          28.257  
C10  39160907.268                         202.582          19.922  
C21  22026460.599   114697530.313         482.468          34.996  
C30  26744877.607                        2593.872          23.489  
C36  23382681.207                       -1905.861          22.053  
E04                                                                                                                                  27619565.273   108384996.824       -1693.094          20.671  
E05                                                                  24173841.298   127034378.342        1962.284          30.720    24173837.700                        1462.362          17.998  
E09                                                                  23797605.061   125057264.602        -637.127          35.483    23797613.455                        -476.200          29.207  
E24                                                                  24577182.670                        2487.519          20.630  
E31                                                                                                                                  23953583.179    93999026.896        -136.436          33.123  
G05  22378729.628   117600952.658       -2689.028          27.420  
G13  20110892.019   105683532.239        -247.687          33.431  
G14  21552693.181   113260144.865       -1057.387          29.416  
G15  20325506.844   106811216.152        1639.396          35.145  
G17  24170854.166   127018693.044        2825.512          26.615  
G24  22620423.507   118871095.0941       3390.096          23.033    22620431.001    88767428.986        2531.687          27.745  
G30  23463228.845   123300134.577       -2469.182          28.927    23463244.434    92074804.286       -1843.906          27.607  
R02  20536451.311                       -2582.508          20.704  
R03  19284926.923   103233745.962        1407.699          31.793  
R04  22302911.216   119430943.437        4324.558          27.367  
R14  22551132.176   120210176.3911       4182.568          23.485  
R20  24032668.730                        -831.397          21.906  
R21  24224208.529   129628644.008        2436.024          28.040  
> 2022  9 17 18 20  6.9999976  0 23
C07  39922441.869   207886615.017        -195.578          28.204  
C14  26646629.322                        3645.387          11.571  
C21  22026428.221   114697361.150         481.382          34.872  
C30  26744443.807                        2593.281          23.764  
C36  23383102.415                       -1907.300          22.172  
E04                                                                                                                                  27620057.832                       -1697.341          19.655  
E05                                                                  24173524.117   127032731.956        1961.471          30.955    24173527.415                        1465.884          18.164  
E09                                                                  23797787.335   125058217.700        -638.014          35.515    23797793.630    93387661.0371       -476.504          29.077  
E24                                                                  24576770.456   129151808.0371       2486.730          19.484  
E31                                                                                                                                  23953677.314    93999399.326        -137.140          33.046  
G05  22379294.737   117603957.706       -2689.964          26.731  
G13  20111001.743   105684096.070        -248.747          33.207  
G14  21552951.902   113261518.504       -1058.555          29.494  
G15  20325249.922   106809892.931        1638.305          35.021  
G17  24170375.098   127016183.483        2824.645          26.115  
G24  22619840.710                        3393.492          22.939    22619845.807                        2530.764          26.992  
G30  23463762.475   123302919.537       -2469.876          28.824    23463772.968    92076883.942       -1844.366          27.305  
R02  20536980.444                       -2584.747          20.231  
R03  19284714.370   103232660.602        1406.322          32.240  
R04  22302153.940   119426940.531        4323.980          27.474  
R14  22550423.467                        4183.111          24.353  
R20  24032865.993                        -831.139          21.652  
R21  24223811.604   129626530.099        2434.760          27.928  
> 2022  9 17 18 20  7.9999979  0 22
C07  39922567.781   207887279.456        -196.109          27.410  
C10  39160984.015                         200.963          20.596  
C21  22026426.122   114697349.053         480.427          34.598  
C30  26744036.988                        2590.705          23.229  
C36  23383567.093                       -1906.750          20.669  
E04                                                                                                                                  27620577.072                       -1698.776          18.032  
E05                                                                  24173246.210   127031243.672        1960.909          31.148    24173242.912                        1464.352          21.867  
E09                                                                  23797999.888   125059329.038        -638.712          34.710    23798006.783    93388490.826        -476.854          28.033  
E31                                                                                                                                  23953804.126    93999889.878        -137.618          32.452  
G05  22379895.221   117607121.033       -2690.701          26.287  
G13  20111139.048   105684818.351        -249.655          33.175  
G14  21553245.998   113263050.736       -1059.605          28.525  
G15  20325032.273   106808728.255        1637.302          34.556  
G17  24169930.505   127013832.019        2824.090          26.382  
G24  22619282.497                        3389.878          22.713    22619289.092    88762955.6001       2530.623          28.681  
G30  23464323.987   123305862.649       -2470.486          29.223    23464332.980    92079081.591       -1844.714          27.842  
R02  20537533.861                       -2586.233          20.802  
R03  19284547.386   103231736.840        1405.207          31.996  
R04  22301450.027   119423098.978        4323.166          27.286  
R14  22549729.147                        4185.238          23.178  
R20  24033125.014                        -838.614          21.572  
R21  24223450.054   129624577.732        2433.641          27.171  
> 2022  9 17 18 20  8.9999981  0 24
C07  39922666.113   207887787.895        -196.220          26.405  
C10  39161006.499                         198.457          20.787  
C21  22026391.347   114697181.435         479.838          32.795  
C22  23612732.046                       -2409.414          16.990  
C30  26743594.195                        2580.908          19.137  
C36  23383998.495                       -1909.420          20.206  
E04                                                                                                                                  27621071.730                       -1693.885          21.223  
E05                                                                  24172932.327   127029598.297        1960.460          32.168    24172928.430                        1468.017          20.543  
E09                                                                  23798176.765   125060283.285        -639.163          35.385    23798188.457    93389203.506        -477.390          27.592  
E24                                                                  24575969.710                        2486.595          21.351  
E31                                                                  23953909.953                        -194.549          27.306  
G05  22380466.326                       -2690.793          24.490  
G13  20111254.168   105685383.638        -250.203          32.546  
G14  21553508.017                       -1062.639          25.121  
G15  20324775.651   106807406.549        1636.790          34.191  
G17  24169454.735   127011323.448        2823.654          26.079  
G24  22618688.308                        3387.649          21.428    22618704.497    88760660.656        2530.234          29.444  
G30  23464854.919   123308648.318       -2470.585          28.322    23464864.812    92081161.897       -1845.016          25.193  
R02  20538101.368                       -2587.927          23.482  
R03  19284342.627   103230653.396        1404.407          31.180  
R04  22300690.353   119419097.152        4322.901          26.112  
R14  22549018.639                        4182.141          21.896  
R20  24033339.365                        -840.090          21.078  
R21  24223043.236                        2433.444          25.989  
> 2022  9 17 18 20  9.9999984  0 24
C07  39922792.326   207888451.361        -195.136          26.341  
C10  39161053.267                         203.957          19.471  
C21  22026389.248   114697169.297         480.467          31.630  
C22  23613280.966                       -2403.360          15.661  
C30  26743188.576                        2577.652          14.420  
C36  23384453.580                       -1902.197          21.319  
E04                                                                                                                                  27621594.568                       -1692.338          22.528  
E05                                                                  24172646.925   127028109.386        1961.537          32.368    24172648.424                        1469.589          20.064  
E09                                                                  23798393.215   125061394.174        -638.263          35.473    23798399.211    93390033.046        -476.605          28.080  
E24                                                                  24575586.276   129145611.1641       2486.516          20.957    24575594.370                        1857.201          17.977  
E31                                                                  23954016.679                        -184.093          27.537  
G05  22381072.206   117613290.3821      -2690.375          23.216  
G13  20111388.176   105686105.617        -249.352          33.013  
G14  21553797.317                       -1063.304          23.326  
G15  20324556.802   106806241.741        1637.434          34.003  
G17  24168995.153   127008971.430        2824.644          23.945  
G24  22618145.084                        3389.814          19.259    22618148.382    88758482.459        2531.132          30.157  
G30  23465415.831   123311590.457       -2469.513          28.857    23465421.827                       -1843.448          23.584  
R02  20538676.970                       -2582.070          24.304  
R03  19284172.645   103229729.872        1404.968          31.573  
R04  22299981.644                        4326.954          24.843  
R14  22548335.112                        4178.911          21.318  
R20  24033561.811                        -835.242          21.502  
R21  24222685.284   129620513.6261       2433.457          25.676  
> 2022  9 17 18 20 10.9999987  0 23
C07  39922919.138   207889113.497        -193.807          26.099  
C10  39161104.232                         205.657          21.105  
C21  22026383.552   114697156.109         481.517          31.340  
C22  23613831.385                       -2408.129          14.051  
C30  26742784.156                        2588.617          15.032  
E04                                                                                                                                  27622115.607   108394994.1101      -1692.337          22.419  
E05                                                                  24172363.021   127026619.159        1962.853          32.150    24172363.921    94857551.1911       1465.712          24.042  
E09                                                                  23798602.470   125062503.671        -636.871          35.571    23798609.965    93390861.568        -475.587          27.832  
E24                                                                  24575195.946                        2488.880          20.849    24575205.539                        1856.652          17.702  
E31                                                                  23954142.292   125879831.9571       -183.058          27.400  
G05  22381673.290   117616452.012       -2689.004          24.033  
G13  20111521.284   105686826.554        -248.311          33.415  
G14  21554101.606                       -1057.395          23.088  
G15  20324331.358   106805075.878        1638.489          33.827  
G17  24168546.364                        2827.086          23.953  
G24  22617576.677                        3393.169          15.716    22617592.566                        2532.829          30.170  
G30  23465973.445   123314531.075       -2467.992          29.826    23465981.839    92085554.8271      -1842.981          23.109  
R02  20539242.978                       -2579.223          24.912  
R03  19284001.464   103228805.511        1405.805          31.083  
R04  22299270.536                        4327.277          24.417  
R14  22547648.288                        4180.419          20.280  
R20  24033807.941                        -833.701          22.493  
R21  24222321.636                        2435.378          25.246  
> 2022  9 17 18 20 11.9999989  0 23
C07  39923018.070   207889617.661        -191.944          26.163  
C10  39161124.318                         210.339          21.955  
C21  22026352.074   114696985.481         482.847          30.183  
C30  26742335.966                        2597.292          15.927  
C36  23385337.668   121773511.1281      -1901.768          25.347  
E04                                                                                                                                  27622604.569   108396920.342       -1690.941          23.248  
E05                                                                  24172049.139   127024969.703        1964.540          32.296    24172050.937                        1467.610          25.102  
E09                                                                  23798783.845   125063454.208        -635.453          35.651    23798792.839    93391571.316        -474.458          28.071  
E24                                                                  24574786.429                        2490.006          21.782    24574789.727                        1858.471          17.899  
E31                                                                  23954237.926   125880328.647        -181.606          27.261  
G05  22382248.292                       -2687.448          24.968  
G13  20111631.607   105687388.522        -246.884          33.757  
G14  21554359.128                       -1056.184          23.812  
G15  20324078.933   106803751.085        1639.877          33.314  
G17  24168073.891                        2828.222          23.787  
G24  22616996.279                        3394.098          13.328    22617007.971    88754005.3071       2533.308          29.814  
G30  23466503.777   123317312.395       -2466.236          30.172    23466512.172                       -1841.576          21.771  
R02  20539782.604   109604346.7781      -2580.403          25.631  
R03  19283802.701   103227719.555        1406.918          30.350  
R04  22298524.653                        4331.346          22.860  
R14  22546902.704                        4188.678          20.338  
R20  24034024.091                        -833.406          22.177  
R21  24221920.513   129616445.5291       2435.664          25.525  
> 2022  9 17 18 20 12.9999992  0 23
C07  39923146.081   207890276.472        -190.482          26.245  
C10  39161175.882                         209.408          22.301  
C21  22026349.675   114696969.825         483.985          30.015  
C30  26741923.452                        2601.539          16.773  
C36  23385792.753                       -1899.383          25.139  
E04                                                                                                                                  27623125.608   108398962.986       -1689.710          23.238  
E05                                                                  24171765.535   127023476.386        1965.943          32.147    24171767.334                        1468.026          25.086  
E09                                                                  23798991.301   125064560.831        -633.997          35.566    23799001.794    93392397.763        -473.512          27.912  
E24                                                                  24574408.991                        2490.564          21.735    24574407.192                        1859.385          17.854  
E31                                                                  23954360.841                        -179.905          26.811  
G05  22382850.875   117622613.5011      -2686.144          25.023  
G13  20111766.814   105688106.836        -245.688          33.461  
G14  21554642.432                       -1055.816          23.965  
G15  20323852.290   106802582.720        1640.991          33.217  
G17  24167626.300   127001749.2831       2829.410          23.699  
G24                                                                  22616452.756    88751823.854        2534.388          29.815  
G30  23467063.490   123320249.657       -2464.636          30.155    23467070.385                       -1839.671          22.479  
R02  20540339.619                       -2579.079          25.863  
R03  19283616.230   103226793.069        1407.930          30.042  
R04  22297794.358                        4329.425          21.866  
R14  22546194.894                        4183.741          20.809  
R20  24034296.303                        -832.016          21.582  
R21  24221562.261   129614490.191        2436.612          26.035  
> 2022  9 17 18 20 13.9999995  0 23
C07  39923270.195                        -188.546          25.906  
C10  39161222.949                         206.181          22.318  
C21  22026348.176   114696953.359         484.796          30.062  
C30  26741519.331                        2600.495          14.756  
C36  23386243.041                       -1898.973          25.363  
E04                                                                                                                                  27623648.746   108401004.800       -1688.878          22.945  
E05                                                                  24171480.432   127021981.846        1967.166          32.184    24171481.332    94854088.3171       1468.972          25.774  
E09                                                                  23799205.053   125065666.397        -632.940          35.582    23799211.948    93393223.384        -472.685          27.981  
E24                                                                  24574026.755                        2493.323          20.490  
E31                                                                  23954487.054   125881633.5421       -179.285          26.696  
G05  22383442.665   117625771.348       -2685.222          25.286  
G13  20111901.420   105688824.201        -244.739          33.248  
G14  21554936.828                       -1054.935          23.546  
G15  20323631.343   106801413.484        1641.861          33.155  
G17  24167176.312   126999391.599        2830.310          24.299  
G24                                                                  22615895.741    88749641.530        2535.260          29.945  
G30  23467616.008   123323185.706       -2463.423          29.974    23467628.299                       -1839.538          22.375  
R02  20540911.923   109610464.3851      -2578.450          25.782  
R03  19283446.848   103225865.954        1408.558          30.245  
R04  22297085.349                        4332.009          21.306  
