     3.03           OBSERVATION DATA    M: Mixed            RINEX VERSION / TYPE
Geo++ RINEX Logger  Geo++               20220917 144711 UTC PGM / RUN BY / DATE
************************************************************COMMENT
This file was generated by the Geo++ RINEX Logger App       COMMENT
for Android devices (Version 2.1.6). If you encounter       COMMENT
any issues, please send an email to android@geopp.de        COMMENT
Filtering Mode: MORE                                        COMMENT
************************************************************COMMENT
Geo++                                                       MARKER NAME
GEODETIC                                                    MARKER TYPE
Geo++               Geo++                                   OBSERVER / AGENCY
unknown             Xiaomi              MI 8                REC # / TYPE / VERS
unknown             MI 8                                    ANT # / TYPE
  4410316.6546   193658.2941  4588681.1282                  APPROX POSITION XYZ
        0.0000        0.0000        0.0000                  ANTENNA: DELTA H/E/N
G    8 C1C L1C D1C S1C C5Q L5Q D5Q S5Q                      SYS / # / OBS TYPES
R    4 C1C L1C D1C S1C                                      SYS / # / OBS TYPES
E   12 C1B L1B D1B S1B C1C L1C D1C S1C C5Q L5Q D5Q S5Q      SYS / # / OBS TYPES
C    4 C2I L2I D2I S2I                                      SYS / # / OBS TYPES
J    8 C1C L1C D1C S1C C5Q L5Q D5Q S5Q                      SYS / # / OBS TYPES
  2022     9    17    14    47   29.2350004     GPS         TIME OF FIRST OBS
 24 R01  1 R02 -4 R03  5 R04  6 R05  1 R06 -4 R07  5 R08  6 GLONASS SLOT / FRQ #
    R09 -2 R10 -5 R11  0 R12 -1 R13 -2 R14 -7 R15  0 R16 -1 GLONASS SLOT / FRQ #
    R17  4 R18 -3 R19  3 R20  2 R21  4 R22 -3 R23  3 R24  2 GLONASS SLOT / FRQ #
G L1C                                                       SYS / PHASE SHIFT
G L5Q -0.25000                                              SYS / PHASE SHIFT
R L1C                                                       SYS / PHASE SHIFT
E L1B                                                       SYS / PHASE SHIFT
E L1C +0.50000                                              SYS / PHASE SHIFT
E L5Q -0.25000                                              SYS / PHASE SHIFT
C L2I                                                       SYS / PHASE SHIFT
J L1C                                                       SYS / PHASE SHIFT
J L5Q -0.25000                                              SYS / PHASE SHIFT
 C1C    0.000 C1P    0.000 C2C    0.000 C2P    0.000        GLONASS COD/PHS/BIS
                                                            END OF HEADER
> 2022  9 17 14 47 29.2350004  0  0
> 2022  9 17 14 47 29.8410751  0  0
> 2022  9 17 14 47 30.8142311  0  0
> 2022  9 17 14 47 31.8112127  0  0
> 2022  9 17 14 47 32.7998728  0  0
> 2022  9 17 14 47 33.7950460  0  0
> 2022  9 17 14 47 34.7924153  0  0
> 2022  9 17 14 47 35.7862100  0  0
> 2022  9 17 14 47 36.7840939  0  0
> 2022  9 17 14 47 37.7858827  0  0
> 2022  9 17 14 47 38.7861687  0  0
> 2022  9 17 14 47 39.7920389  0  0
> 2022  9 17 14 47 40.7919368  0  0
> 2022  9 17 14 47 41.7950799  0  0
> 2022  9 17 14 47 42.7963194  0  0
> 2022  9 17 14 47 43.7911765  0  0
> 2022  9 17 14 47 44.7903614  0  0
> 2022  9 17 14 47 45.7956403  0  0
> 2022  9 17 14 47 46.8004264  0  0
> 2022  9 17 14 47 47.8009796  0  0
> 2022  9 17 14 47 48.8044590  0  0
> 2022  9 17 14 47 49.8129893  0  0
> 2022  9 17 14 47 50.8094182  0  0
> 2022  9 17 14 47 51.8063946  0  0
> 2022  9 17 14 47 52.8091195  0  0
> 2022  9 17 14 47 53.8031639  0  0
> 2022  9 17 14 47 54.8030220  0  0
> 2022  9 17 14 47 55.7991419  0  0
> 2022  9 17 14 47 56.8061079  0  0
> 2022  9 17 14 47 57.8029032  0  0
> 2022  9 17 14 47 58.8048029  0  0
> 2022  9 17 14 47 59.8021380  0  0
> 2022  9 17 14 48  0.8027689  0  0
> 2022  9 17 14 48  1.8085176  0  0
> 2022  9 17 14 48  2.8046159  0  0
> 2022  9 17 14 48  3.8084900  0  0
> 2022  9 17 14 48  4.8063146  0  0
> 2022  9 17 14 48  5.7991725  0  0
> 2022  9 17 14 48  6.8040628  0  0
> 2022  9 17 14 48  7.8005381  0  0
> 2022  9 17 14 48  8.8008824  0  0
> 2022  9 17 14 48  9.8029362  0  0
> 2022  9 17 14 48 10.8054035  0  0
> 2022  9 17 14 48 11.8011025  0  0
> 2022  9 17 14 48 12.7997817  0  0
> 2022  9 17 14 48 13.7985259  0  0
> 2022  9 17 14 48 14.8000704  0  0
> 2022  9 17 14 48 15.7987114  0  0
> 2022  9 17 14 48 16.7991547  0  0
> 2022  9 17 14 48 17.8027101  0  0
> 2022  9 17 14 48 18.8035813  0  0
> 2022  9 17 14 48 19.7989897  0  0
> 2022  9 17 14 48 20.7978865  0  0
> 2022  9 17 14 48 21.8034313  0  0
> 2022  9 17 14 48 22.8030106  0  0
> 2022  9 17 14 48 23.8000003  0  0
> 2022  9 17 14 48 24.7994110  0  0
> 2022  9 17 14 48 25.7969651  0  0
> 2022  9 17 14 48 26.7963708  0  0
> 2022  9 17 14 48 27.7990093  0  0
> 2022  9 17 14 48 28.7993300  0  0
> 2022  9 17 14 48 29.8012716  0  0
> 2022  9 17 14 48 30.8007106  0  0
> 2022  9 17 14 48 31.7982442  0  0
> 2022  9 17 14 48 32.7957318  0  0
> 2022  9 17 14 48 33.7986989  0  0
> 2022  9 17 14 48 34.8000719  0  0
> 2022  9 17 14 48 35.7972964  0  0
> 2022  9 17 14 48 36.8004200  0  0
> 2022  9 17 14 48 37.7994178  0  0
> 2022  9 17 14 48 38.8001065  0  0
> 2022  9 17 14 48 39.7979085  0  0
> 2022  9 17 14 48 40.7988227  0  0
> 2022  9 17 14 48 41.7947018  0  0
> 2022  9 17 14 48 42.7954552  0  0
> 2022  9 17 14 48 43.7967701  0  0
> 2022  9 17 14 48 44.8030713  0  0
> 2022  9 17 14 48 45.7915235  0  0
> 2022  9 17 14 48 46.7947913  0  0
> 2022  9 17 14 48 47.7960533  0  0
> 2022  9 17 14 48 48.7941387  0  0
> 2022  9 17 14 48 49.7931076  0  0
> 2022  9 17 14 48 50.7926971  0  0
> 2022  9 17 14 48 51.7912925  0  0
> 2022  9 17 14 48 52.7908468  0  0
> 2022  9 17 14 48 53.7928640  0  0
> 2022  9 17 14 48 54.7927586  0  0
> 2022  9 17 14 48 55.7928870  0  0
> 2022  9 17 14 48 56.7931974  0  0
> 2022  9 17 14 48 57.7913124  0  0
> 2022  9 17 14 48 58.7912202  0  0
> 2022  9 17 14 48 59.7914763  0  0
> 2022  9 17 14 49  0.7982751  0  0
> 2022  9 17 14 49  1.7994730  0  0
> 2022  9 17 14 49  2.8006475  0  0
> 2022  9 17 14 49  3.7967614  0  0
> 2022  9 17 14 49  4.7989834  0  0
> 2022  9 17 14 49  5.7995601  0  0
> 2022  9 17 14 49  6.8083406  0  0
> 2022  9 17 14 49  7.8013541  0  0
> 2022  9 17 14 49  8.8045018  0  0
> 2022  9 17 14 49  9.8087374  0  0
> 2022  9 17 14 49 10.8083454  0  0
> 2022  9 17 14 49 11.7980512  0  0
> 2022  9 17 14 49 12.8024907  0  0
> 2022  9 17 14 49 13.8022121  0  0
> 2022  9 17 14 49 14.8001616  0  0
> 2022  9 17 14 49 15.8045838  0  0
> 2022  9 17 14 49 16.7964824  0  0
> 2022  9 17 14 49 17.7974892  0  0
> 2022  9 17 14 49 18.7958182  0  0
> 2022  9 17 14 49 19.8006501  0  0
> 2022  9 17 14 49 20.7961441  0  0
> 2022  9 17 14 49 21.7988835  0  0
> 2022  9 17 14 49 22.7977250  0  0
> 2022  9 17 14 49 23.7978999  0  0
> 2022  9 17 14 49 24.7954652  0  0
> 2022  9 17 14 49 25.7998747  0  0
> 2022  9 17 14 49 26.7984129  0  0
> 2022  9 17 14 49 27.7947737  0  0
> 2022  9 17 14 49 28.8028057  0  0
> 2022  9 17 14 49 29.7990439  0  0
> 2022  9 17 14 49 30.7971784  0  0
> 2022  9 17 14 49 31.7936137  0  0
> 2022  9 17 14 49 32.7893865  0  0
> 2022  9 17 14 49 33.7928525  0  0
> 2022  9 17 14 49 34.7926549  0  0
> 2022  9 17 14 49 35.7915511  0  0
> 2022  9 17 14 49 36.7905370  0  0
> 2022  9 17 14 49 37.7927001  0  0
> 2022  9 17 14 49 38.8144560  0  0
> 2022  9 17 14 49 39.7941435  0  0
> 2022  9 17 14 49 40.7983938  0  0
> 2022  9 17 14 49 41.7943235  0  0
> 2022  9 17 14 49 42.7915309  0  0
> 2022  9 17 14 49 43.7981006  0  0
> 2022  9 17 14 49 44.7987916  0  0
> 2022  9 17 14 49 45.8007041  0  0
> 2022  9 17 14 49 46.8029117  0  0
> 2022  9 17 14 49 47.8034975  0  0
> 2022  9 17 14 49 48.8044754  0  0
> 2022  9 17 14 49 49.8008290  0  0
> 2022  9 17 14 49 50.8033710  0  0
> 2022  9 17 14 49 51.8041650  0  0
> 2022  9 17 14 49 52.8012017  0  0
> 2022  9 17 14 49 53.8024379  0  0
> 2022  9 17 14 49 54.8018641  0  0
> 2022  9 17 14 49 55.8039870  0  0
> 2022  9 17 14 49 56.8048195  0  0
> 2022  9 17 14 49 57.7965002  0  0
> 2022  9 17 14 49 58.7965218  0  0
> 2022  9 17 14 49 59.7948146  0  0
> 2022  9 17 14 50  0.7968341  0  0
> 2022  9 17 14 50  1.7971883  0  0
> 2022  9 17 14 50  2.8014311  0  0
> 2022  9 17 14 50  3.8013432  0  0
> 2022  9 17 14 50  4.8024928  0  0
> 2022  9 17 14 50  5.8044774  0  0
> 2022  9 17 14 50  6.8093213  0  0
> 2022  9 17 14 50  7.8061977  0  0
> 2022  9 17 14 50  8.8032415  0  0
> 2022  9 17 14 50  9.8039560  0  0
> 2022  9 17 14 50 10.8049134  0  0
> 2022  9 17 14 50 11.8022620  0  0
> 2022  9 17 14 50 12.7995194  0  0
> 2022  9 17 14 50 13.8024081  0  0
> 2022  9 17 14 50 14.8041213  0  0
> 2022  9 17 14 50 15.8011587  0  0
> 2022  9 17 14 50 16.8026677  0  0
> 2022  9 17 14 50 17.8062431  0  0
> 2022  9 17 14 50 18.8004171  0  0
> 2022  9 17 14 50 19.8029412  0  0
> 2022  9 17 14 50 20.8024995  0  0
> 2022  9 17 14 50 21.8005923  0  0
> 2022  9 17 14 50 22.7925046  0  0
> 2022  9 17 14 50 23.7942234  0  0
> 2022  9 17 14 50 24.7969670  0  0
> 2022  9 17 14 50 25.8051941  0  0
> 2022  9 17 14 50 26.8020323  0  0
> 2022  9 17 14 50 27.7926268  0  0
> 2022  9 17 14 50 28.8000445  0  0
> 2022  9 17 14 50 29.8047790  0  0
> 2022  9 17 14 50 30.8035751  0  0
> 2022  9 17 14 50 31.8014947  0  0
> 2022  9 17 14 50 32.7996291  0  0
> 2022  9 17 14 50 33.7955447  0  0
> 2022  9 17 14 50 34.7868921  0  0
> 2022  9 17 14 50 35.7891352  0  0
> 2022  9 17 14 50 36.7862103  0  0
> 2022  9 17 14 50 37.7873098  0  0
> 2022  9 17 14 50 38.7908444  0  0
> 2022  9 17 14 50 39.7904034  0  0
> 2022  9 17 14 50 40.7916735  0  0
> 2022  9 17 14 50 41.7912605  0  0
> 2022  9 17 14 50 42.7910270  0  0
> 2022  9 17 14 50 43.8291876  0  0
> 2022  9 17 14 50 44.8005586  0  0
> 2022  9 17 14 50 45.8091209  0  0
> 2022  9 17 14 50 46.8176836  0  0
> 2022  9 17 14 50 47.8266164  0  0
> 2022  9 17 14 50 48.8330235  0  0
> 2022  9 17 14 50 49.8080358  0  0
> 2022  9 17 14 50 50.8105476  0  0
> 2022  9 17 14 50 51.8132928  0  0
> 2022  9 17 14 50 52.8079819  0  0
> 2022  9 17 14 50 53.7991762  0  0
> 2022  9 17 14 50 54.8140800  0  0
> 2022  9 17 14 50 55.7978463  0  0
> 2022  9 17 14 50 56.7977320  0  0
> 2022  9 17 14 50 57.7967843  0  0
> 2022  9 17 14 50 58.8004997  0  0
> 2022  9 17 14 50 59.8106807  0  0
> 2022  9 17 14 51  0.8114637  0  0
> 2022  9 17 14 51  1.8054593  0  0
> 2022  9 17 14 51  2.7842177  0  0
> 2022  9 17 14 51  3.7694364  0  0
> 2022  9 17 14 51  4.7710268  0  0
> 2022  9 17 14 51  5.7637501  0  0
> 2022  9 17 14 51  6.7378325  0  0
> 2022  9 17 14 51  7.7817155  0  0
> 2022  9 17 14 51  8.7892642  0  0
> 2022  9 17 14 51  9.7776916  0  0
> 2022  9 17 14 51 10.7994731  0  0
> 2022  9 17 14 51 11.8000174  0  0
> 2022  9 17 14 51 12.7765721  0  0
> 2022  9 17 14 51 13.7727170  0  0
> 2022  9 17 14 51 14.7743300  0  0
> 2022  9 17 14 51 15.7699976  0  0
> 2022  9 17 14 51 16.7845280  0  0
> 2022  9 17 14 51 17.7875885  0  0
> 2022  9 17 14 51 18.7892709  0  0
> 2022  9 17 14 51 19.7868541  0  0
> 2022  9 17 14 51 20.7819939  0  0
> 2022  9 17 14 51 21.7834917  0  0
> 2022  9 17 14 51 22.7766245  0  0
> 2022  9 17 14 51 23.7785621  0  0
> 2022  9 17 14 51 24.7878037  0  0
> 2022  9 17 14 51 25.7854805  0  0
> 2022  9 17 14 51 26.7936080  0  0
> 2022  9 17 14 51 27.7911932  0  0
> 2022  9 17 14 51 28.7922083  0  0
> 2022  9 17 14 51 29.7933177  0  0
> 2022  9 17 14 51 30.8001569  0  0
> 2022  9 17 14 51 31.8000607  0  0
> 2022  9 17 14 51 32.8008510  0  0
> 2022  9 17 14 51 33.8036760  0  0
> 2022  9 17 14 51 34.8054551  0  0
> 2022  9 17 14 51 35.8032631  0  0
> 2022  9 17 14 51 36.8120980  0  0
> 2022  9 17 14 51 37.8120982  0  0
> 2022  9 17 14 51 38.8135737  0  0
> 2022  9 17 14 51 39.8078561  0  0
> 2022  9 17 14 51 40.8078563  0  0
> 2022  9 17 14 51 41.8078565  0  0
> 2022  9 17 14 51 42.7842895  0  0
> 2022  9 17 14 51 43.8011617  0  0
> 2022  9 17 14 51 44.7935974  0  0
> 2022  9 17 14 51 45.7753245  0  0
> 2022  9 17 14 51 46.7753247  0  0
> 2022  9 17 14 51 47.7985077  0  0
> 2022  9 17 14 51 48.7972613  0  0
> 2022  9 17 14 51 49.7944428  0  0
> 2022  9 17 14 51 50.8008083  0  0
> 2022  9 17 14 51 51.8008085  0  0
> 2022  9 17 14 51 52.7992868  0  0
> 2022  9 17 14 51 53.7989972  0  0
> 2022  9 17 14 51 54.8014909  0  0
> 2022  9 17 14 51 55.8025256  0  0
> 2022  9 17 14 51 56.8041074  0  0
> 2022  9 17 14 51 57.8033984  0  0
> 2022  9 17 14 51 58.8051007  0  0
> 2022  9 17 14 51 59.7896164  0  0
> 2022  9 17 14 52  0.7898114  0  0
> 2022  9 17 14 52  1.7888851  0  0
> 2022  9 17 14 52  2.7888853  0  0
> 2022  9 17 14 52  3.7981558  0  0
> 2022  9 17 14 52  4.7981560  0  0
> 2022  9 17 14 52  5.7956202  0  0
> 2022  9 17 14 52  6.7965029  0  0
> 2022  9 17 14 52  7.7997838  0  0
> 2022  9 17 14 52  8.8035257  0  0
> 2022  9 17 14 52  9.7900101  0  0
> 2022  9 17 14 52 10.7902132  0  0
> 2022  9 17 14 52 11.7940192  0  0
> 2022  9 17 14 52 12.7941816  0  0
> 2022  9 17 14 52 13.7942085  0  0
> 2022  9 17 14 52 14.7897137  0  0
> 2022  9 17 14 52 15.7907061  0  0
> 2022  9 17 14 52 16.7974697  0  0
> 2022  9 17 14 52 17.7985442  0  0
> 2022  9 17 14 52 18.7979201  0  0
> 2022  9 17 14 52 19.7991541  0  0
> 2022  9 17 14 52 20.7930924  0  0
> 2022  9 17 14 52 21.7898288  0  0
> 2022  9 17 14 52 22.7976103  0  0
> 2022  9 17 14 52 23.7951870  0  0
> 2022  9 17 14 52 24.7984191  0  0
> 2022  9 17 14 52 25.7928180  0  0
> 2022  9 17 14 52 26.7986892  0  0
> 2022  9 17 14 52 27.7932710  0  0
> 2022  9 17 14 52 28.7966301  0  0
> 2022  9 17 14 52 29.7994942  0  0
> 2022  9 17 14 52 30.7992799  0  0
> 2022  9 17 14 52 31.7985365  0  0
> 2022  9 17 14 52 32.8048719  0  0
> 2022  9 17 14 52 33.7976825  0  0
> 2022  9 17 14 52 34.7960626  0  0
> 2022  9 17 14 52 35.7968942  0  0
> 2022  9 17 14 52 36.7950673  0  0
> 2022  9 17 14 52 37.7941408  0  0
> 2022  9 17 14 52 38.7908301  0  0
> 2022  9 17 14 52 39.7936272  0  0
> 2022  9 17 14 52 40.7950158  0  0
> 2022  9 17 14 52 41.7950050  0  0
> 2022  9 17 14 52 42.7946631  0  0
> 2022  9 17 14 52 43.7917524  0  0
> 2022  9 17 14 52 44.7833625  0  0
> 2022  9 17 14 52 45.7844579  0  0
> 2022  9 17 14 52 46.7840746  0  0
> 2022  9 17 14 52 47.7821178  0  0
> 2022  9 17 14 52 48.7800968  0  0
> 2022  9 17 14 52 49.7782921  0  0
> 2022  9 17 14 52 50.7838861  0  0
> 2022  9 17 14 52 51.7859084  0  0
> 2022  9 17 14 52 52.7838122  0  0
> 2022  9 17 14 52 53.7862454  0  0
> 2022  9 17 14 52 54.7832147  0  0
> 2022  9 17 14 52 55.7899035  0  0
> 2022  9 17 14 52 56.7934975  0  0
> 2022  9 17 14 52 57.7934350  0  0
