     3.03           OBSERVATION DATA    M: Mixed            RINEX VERSION / TYPE
Geo++ RINEX Logger  Geo++               20220917 072811 UTC PGM / RUN BY / DATE
************************************************************COMMENT
This file was generated by the Geo++ RINEX Logger App       COMMENT
for Android devices (Version 2.1.6). If you encounter       COMMENT
any issues, please send an email to android@geopp.de        COMMENT
Filtering Mode: MORE                                        COMMENT
************************************************************COMMENT
Geo++                                                       MARKER NAME
GEODETIC                                                    MARKER TYPE
Geo++               Geo++                                   OBSERVER / AGENCY
unknown             Xiaomi              MI 8                REC # / TYPE / VERS
unknown             MI 8                                    ANT # / TYPE
  4410312.7251   193652.6421  4588668.7813                  APPROX POSITION XYZ
        0.0000        0.0000        0.0000                  ANTENNA: DELTA H/E/N
G    8 C1C L1C D1C S1C C5Q L5Q D5Q S5Q                      SYS / # / OBS TYPES
R    4 C1C L1C D1C S1C                                      SYS / # / OBS TYPES
E   12 C1B L1B D1B S1B C1C L1C D1C S1C C5Q L5Q D5Q S5Q      SYS / # / OBS TYPES
C    4 C2I L2I D2I S2I                                      SYS / # / OBS TYPES
J    8 C1C L1C D1C S1C C5Q L5Q D5Q S5Q                      SYS / # / OBS TYPES
  2022     9    17     7    28   29.9999989     GPS         TIME OF FIRST OBS
 24 R01  1 R02 -4 R03  5 R04  6 R05  1 R06 -4 R07  5 R08  6 GLONASS SLOT / FRQ #
    R09 -2 R10 -5 R11  0 R12 -1 R13 -2 R14 -7 R15  0 R16 -1 GLONASS SLOT / FRQ #
    R17  4 R18 -3 R19  3 R20  2 R21  4 R22 -3 R23  3 R24  2 GLONASS SLOT / FRQ #
G L1C                                                       SYS / PHASE SHIFT
G L5Q -0.25000                                              SYS / PHASE SHIFT
R L1C                                                       SYS / PHASE SHIFT
E L1B                                                       SYS / PHASE SHIFT
E L1C +0.50000                                              SYS / PHASE SHIFT
E L5Q -0.25000                                              SYS / PHASE SHIFT
C L2I                                                       SYS / PHASE SHIFT
J L1C                                                       SYS / PHASE SHIFT
J L5Q -0.25000                                              SYS / PHASE SHIFT
 C1C    0.000 C1P    0.000 C2C    0.000 C2P    0.000        GLONASS COD/PHS/BIS
                                                            END OF HEADER
> 2022  9 17  7 28 29.9999989  0 26
C06  40102488.525   208824181.2611       1793.944          28.804  
C09  41108045.792   214060439.4471       2110.578          31.556  
C27  21716735.117   113084737.699        -368.095          32.942  
C28  24818240.989   129235082.640       -2345.735          36.251  
C30  22651981.160                        2359.364          23.422  
C32  23892036.987                        3310.604          11.961  
C33  25092952.211   130665586.591       -2284.477          34.333  
E07                                                                  25560686.005   134322315.607        1365.092          34.615    25560690.502   100305652.131        1019.578          36.795  
E08                                                                  27414086.923   144061998.758       -1210.073          29.755    27414091.120                        -903.596          24.421  
E13                                                                  27896054.263   146594755.0511      -1996.488          29.600    27896063.257   109470143.3161      -1490.810          30.366  
E24                                                                  27237254.641   143132739.0581       1560.936          23.958  
E26                                                                                                                                  24447149.491                        -567.283          19.699  
E33                                                                  24006123.606   126153031.306        1386.787          21.594  
G01  21444034.304   112689160.8301       2660.754          30.849    21444035.503    84151000.5361       1986.930          25.600  
G08  20494287.600   107698208.1651       -702.562          30.608    20494287.300                        -523.820          25.808  
G10  22850384.708   120079563.198       -2492.346          35.121    22850391.303                       -1863.567          22.053  
G14  23678528.396                        2093.957          22.997  
G21  20850896.125                         829.280          14.707  
G22  23383689.409   122882116.577        2787.338          31.998  
G27  22264662.195   117001566.959       -2717.322          30.989    22264663.394    87371321.069       -2029.131          35.809  
G32  22869512.066   120180096.925        1566.686          36.183    22869515.964    89744892.023        1169.892          29.680  
R04  22018937.307                       -2842.308          24.205  
R05  19840462.434   106058641.573         928.227          36.432  
R12  23028891.930                        1432.952          24.967  
R20  19866156.146                        -603.033          21.246  
R21  21110611.728   112967257.788        3003.587          35.268  
> 2022  9 17  7 28 30.9999992  0 25
C06  40102237.299   208822851.271        1798.320          29.865  
C09  41107729.511   214058792.878        2114.898          30.582  
C27  21716897.305   113085570.037        -364.008          33.647  
C28  24818782.714   129237892.514       -2341.545          34.987  
C30  22651603.721                        2363.391          22.048  
C32  23891458.388                        3317.619          13.864  
C33  25093477.147   130668335.266       -2280.346          33.780  
E07                                                                  25560515.124   134321419.011        1369.222          34.691    25560520.220   100304982.766        1022.299          36.703  
E08                                                                  27414407.700   144063677.274       -1205.891          27.926    27414408.900                        -899.435          22.775  
E13                                                                  27896524.338   146597219.676       -1991.999          30.282    27896535.131   109471983.781       -1487.529          29.919  
E24                                                                  27237048.084   143131646.774        1564.910          22.024  
E26                                                                                                                                  24447378.832                        -561.660          24.094  
E33                                                                  24005952.725   126152112.641        1391.291          22.034  
G01  21443617.293   112686968.449        2665.007          28.228    21443617.293                        1988.882          23.345  
G08  20494512.444   107699379.410        -698.618          32.559    20494510.046    80424859.4271       -521.699          27.419  
G10  22850949.817   120082524.148       -2488.325          36.755    22850958.810                       -1855.725          24.197  
G14  23678229.803                        2099.693          19.996  
G21  20850829.571                         836.137          18.263  
G22  23383243.018   122879797.782        2791.422          33.552  
G27  22265271.074   117004752.685       -2713.101          32.768    22265269.874    87373700.169       -2026.166          36.674  
G32  22869303.710   120178999.025        1570.526          35.188    22869308.507    89744072.135        1172.823          30.236  
R04  22019527.598                       -2835.032          21.281  
R05  19840383.288   106058190.382         931.959          36.148  
R12  23028708.757                        1435.134          26.251  
R20  19866388.785                        -604.860          19.376  
> 2022  9 17  7 28 31.9999994  0 24
C06  40101950.697   208821359.965        1803.525          29.738  
C09  41107382.951                        2122.880          30.303  
C27  21717026.515   113086241.142        -358.886          33.985  
C28  24819289.963   129240540.834       -2336.101          35.162  
C33  25093975.402   130670922.788       -2275.303          34.526  
E07                                                                  25560313.663   134320359.922        1374.173          35.562    25560319.659   100304191.865        1026.191          36.882  
E08                                                                  27414694.302   144065193.302       -1200.944          27.550    27414698.799                        -895.009          22.676  
E13                                                                  27896965.932   146599521.199       -1986.440          29.182    27896971.029   109473702.506       -1483.435          29.512  
E24                                                                  27236798.657   143130392.491        1569.367          21.368  
E26                                                                  24447586.588                        -767.305          20.874    24447579.093                        -557.535          22.288  
E33                                                                  24005744.969   126151031.101        1396.624          21.037  
G01  21443173.000   112684613.356        2670.177          26.674    21443170.002    84147605.5651       1993.335          22.124  
G08  20494705.511   107700388.108        -693.615          33.140    20494703.412    80425612.745        -518.028          26.320  
G10  22851483.447   120085322.237       -2483.004          36.793    22851488.544    89674147.2251      -1854.358          24.962  
G14  23677894.035                        2106.777          19.842  
G21  20850738.434                         845.925          18.633  
G22  23382773.243   122877316.357        2796.509          33.675  
G27  22265845.776   117007775.703       -2707.933          31.918    22265845.176    87375957.482       -2022.022          35.352  
G32  22869065.675   120177738.660        1575.449          34.639    22869067.774    89743130.931        1176.494          30.569  
R04  22020140.674                       -2830.519          21.440  
R05  19840260.374   106057574.332         936.562          36.268  
R12  23028490.508                        1443.208          25.770  
R20  19866538.981                        -596.487          19.220  
R21  21109647.295   112962038.4001       3013.477          30.564  
> 2022  9 17  7 28 32.9999996  0 26
C05  40181660.116                         330.411          24.874  
C06  40101663.796   208819863.281        1808.904          29.313  
C09  41107037.890   214055171.4151       2125.685          31.024  
C27  21717156.026   113086907.015        -353.653          33.883  
C28  24819796.313   129243184.030       -2330.976          35.281  
C30  22650817.965                        2377.123          24.402  
C33  25094468.561   130673505.047       -2270.039          33.634  
E07                                                                  25560107.706   134319295.705        1379.301          35.523    25560116.999   100303397.180        1029.976          36.031  
E08                                                                  27414982.403                       -1195.422          26.732    27414988.698                        -892.180          22.611  
E13                                                                  27897397.334   146601817.268       -1980.985          28.599    27897406.927                       -1478.363          28.437  
E24                                                                  27236567.816                        1569.593          20.325  
E26                                                                  24447784.751                        -758.332          19.595    24447776.956                        -552.909          19.531  
E33                                                                  24005547.705                        1402.255          22.243  
G01  21442721.813   112682253.080        2675.360          29.616    21442720.014                        1998.728          24.739  
G08  20494897.678   107701391.917        -688.724          32.549    20494893.181    80426362.309        -514.274          25.319  
G10  22852013.780   120088115.044       -2477.723          34.054    22852018.277                       -1848.648          24.697  
G14  23677551.972                        2115.265          21.074  
G21  20850619.417                         852.053          19.760  
G22  23382301.969   122874829.673        2801.768          31.992  
G27  22266420.478   117010793.686       -2702.900          30.786    22266419.578    87378211.103       -2018.331          35.796  
G32  22868821.944   120176473.349        1580.395          36.906    22868828.539    89742186.036        1180.185          30.491  
R04  22020745.655                       -2824.838          24.343  
R05  19840153.048   106056953.550         941.294          37.204  
R12  23028301.039                        1451.931          25.634  
R20  19866746.138                        -589.924          19.455  
R21  21109143.644   112959340.343        3018.908          33.928  
> 2022  9 17  7 28 33.9999998  0 26
C05  40181641.229                         338.858          22.213  
C06  40101376.595   208818365.082        1810.419          29.285  
C09  41106686.833   214053356.416        2127.219          32.067  
C27  21717280.739   113087571.602        -352.368          33.634  
C28  24820305.060   129245825.575       -2329.325          36.667  
C30  22650414.444                        2375.113          24.873  
C33  25094966.216   130676085.993       -2268.726          34.736  
E07                                                                  25559904.147   134318230.206        1380.583          36.010    25559913.740   100302601.456        1031.013          36.035  
E08                                                                  27415269.304   144068213.7651      -1194.483          27.922    27415273.201   107583421.8391       -892.044          25.518  
E13                                                                  27897838.628   146604111.622       -1979.271          29.876    27897844.924   109477130.3181      -1478.024          28.984  
E24                                                                  27236327.683                        1576.262          23.411  
E26                                                                                                                                  24447978.717    95939154.2431       -553.831          20.106  
E33                                                                  24005336.351   126148856.4791       1403.332          20.817  
G01  21442267.627   112679891.247        2676.917          30.127    21442270.025    84144080.3431       1998.995          25.764  
G08  20495085.048   107702394.443        -687.442          32.445    20495085.348    80427111.029        -513.430          23.855  
G10  22852543.813   120090906.449       -2476.320          36.344    22852556.704    89678317.0101      -1849.065          21.362  
G14  23677200.615                        2112.637          22.373  
G21  20850524.682                         854.493          17.708  
G22  23381825.599   122872341.499        2803.258          30.185  
G27  22266991.283   117013810.152       -2701.381          29.789    22266993.381    87380463.625       -2017.232          36.035  
G32  22868581.510   120175206.757        1581.676          34.451    22868585.108    89741240.272        1181.054          29.556  
R04  22021355.433                       -2826.443          22.879  
R05  19840031.032   106056331.959         942.104          37.278  
R12  23028068.400   123011872.7671       1447.933          27.701  
R20  19866883.143                        -580.432          18.111  
R21  21108633.097   112956640.781        3020.411          34.451  
> 2022  9 17  7 28 35.0000001  0 26
C05  40181674.506                         341.723          22.784  
C06  40101119.972   208817022.110        1811.302          28.806  
C09  41106368.153   214051696.621        2128.125          31.170  
C27  21717439.030   113088391.752        -351.820          34.108  
C28  24820844.687   129248622.492       -2328.588          37.008  
C30  22650051.695                        2375.660          25.360  
C33  25095491.153   130678822.404       -2268.082          34.285  
E07                                                                  25559730.267   134317321.784        1381.048          33.775    25559740.460   100301923.129        1031.262          36.071  
E08                                                                  27415589.782   144069880.219       -1193.828          27.885    27415590.382                        -889.577          24.032  
E13                                                                  27898300.908   146606562.582       -1978.333          29.309    27898309.602   109478960.669       -1477.416          29.227  
E24                                                                  27236117.828   143126767.0391       1576.659          23.949  
E26                                                                                                                                  24448215.553                        -554.027          21.070  
E33                                                                  24005162.472   126147924.819        1404.286          23.546  
G01  21441849.417   112677686.412        2677.461          30.081    21441853.014    84142433.714        1999.564          26.722  
G08  20495307.194   107703554.073        -687.004          31.362    20495305.096                        -512.488          23.737  
G10  22853107.123   120093854.797       -2475.722          35.439    22853111.620                       -1846.129          22.580  
G14  23676887.932                        2111.387          21.371  
G21  20850450.334                         851.084          15.604  
G22  23381380.407   122870010.233        2803.892          30.420  
G27  22267597.763   117016983.314       -2700.537          27.741    22267595.964    87382833.320       -2016.761          36.224  
G32  22868372.255   120174097.383        1582.000          35.343    22868374.953    89740411.832        1181.376          29.130  
R04  22021975.104                       -2825.349          19.642  
R05  19839949.489   106055870.654         942.073          36.841  
R12  23027866.939                        1447.297          26.568  
R20  19867080.706                        -579.548          19.287  
R21  21108155.828   112954100.762        3021.295          35.398  
> 2022  9 17  7 28 36.0000003  0 22
C06  40100831.272   208815522.091        1812.239          29.068  
C09  41106017.996   214049879.702        2129.138          31.108  
C27  21717567.941   113089055.038        -351.066          35.103  
C28  24821350.137   129251262.308       -2327.596          35.897  
C30  22649655.670                        2376.920          25.198  
C33  25095985.511   130681401.882       -2267.259          34.674  
E07                                                                  25559528.507   134316255.203        1381.665          34.391    25559537.800   100301126.617        1031.803          36.813  
E08                                                                  27415872.187   144071388.577       -1193.274          29.232    27415875.484                        -889.750          21.675  
E13                                                                  27898738.305   146608854.929       -1977.263          30.059    27898748.199   109480672.416       -1476.456          30.367  
E33                                                                  24004952.317                        1404.669          22.834  
G01  21441402.126   112675323.039        2678.457          30.069    21441403.625                        1997.720          23.893  
G08  20495493.965   107704555.697        -686.540          31.480    20495495.764    80428724.9831       -512.820          27.804  
G10  22853638.056   120096644.638       -2474.757          36.017    22853643.152                       -1849.159          23.998  
G14  23676541.072                        2113.136          22.859  
G22  23380907.934   122867520.673        2804.644          30.988  
G27  22268170.966   117019998.276       -2699.877          30.148    22268170.067    87385084.737       -2016.127          35.504  
G32  22868131.222   120172829.823        1582.644          37.414    22868133.321    89739465.301        1181.820          29.199  
R04  22022553.404                       -2825.498          18.221  
R05  19839824.775   106055248.729         942.437          36.098  
R12  23027671.175   123009776.9491       1448.217          28.804  
R20  19867251.588                        -582.674          18.401  
R21  21107652.476   112951399.554        3022.058          34.984  
> 2022  9 17  7 28 37.0000005  0 24
C06  40100543.771   208814022.483        1811.827          29.314  
C09  41105671.136   214048063.159        2128.762          31.518  
C27  21717692.654   113089718.814        -351.557          34.746  
C28  24821858.885   129253902.564       -2328.037          35.918  
C30  22649259.344                        2377.256          22.936  
C33  25096483.466   130683981.894       -2267.792          34.495  
E07                                                                  25559326.746   134315189.239        1381.048          33.547    25559336.340   100300330.665        1031.241          37.470  
E08                                                                  27416160.287   144072897.504       -1193.843          28.919    27416163.285   107586919.6031       -891.648          22.582  
E13                                                                  27899173.604   146611147.576       -1977.563          29.935    27899183.497   109482384.407       -1476.701          30.028  
E24                                                                  27235633.064                        1577.717          19.435  
E33                                                                  24004741.263                        1403.451          22.980  
G01  21440950.039   112672960.275        2677.848          30.474    21440949.739                        2000.740          20.510  
G08  20495685.232   107705558.077        -687.296          30.981    20495686.132    80429473.515        -513.242          28.330  
G10  22854168.089   120099435.059       -2475.337          36.257    22854178.881    89684685.8521      -1848.349          24.011  
G14  23676208.602                        2111.403          25.185  
G21  20850255.768   109568785.4271        850.072          25.940  
G22  23380436.960   122865031.680        2804.076          31.189  
G27  22268742.670   117023013.793       -2700.433          30.329    22268742.970    87387336.571       -2016.544          35.432  
G32  22867894.686   120171563.164        1581.743          37.567    22867891.388    89738519.418        1181.174          28.200  
R04  22023171.276                       -2826.314          16.805  
R05  19839714.751   106054628.016         941.225          36.379  
R12  23027456.823   123008649.942        1447.295          28.247  
R20  19867391.291                        -589.558          21.152  
R21  21107144.928   112948698.684        3021.720          34.768  
> 2022  9 17  7 28 38.0000008  0 24
C06  40100284.751   208812679.742        1811.071          28.787  
C09  41105350.358   214046403.400        2128.088          32.468  
C27  21717850.945   113090539.799        -352.656          34.605  
C28  24822396.113   129256699.740       -2328.846          36.076  
C30  22648884.004                        2374.603          22.900  
C33  25097007.803   130686719.047       -2268.824          33.937  
E07                                                                  25559152.267   134314281.920        1379.946          33.777    25559162.160   100299653.072        1030.528          37.628  
E08                                                                  27416475.069   144074564.966       -1194.836          28.614    27416481.665   107588164.919        -892.381          22.791  
E13                                                                  27899639.481   146613598.339       -1978.137          29.027    27899651.473   109484214.576       -1477.234          30.617  
E24                                                                  27235424.408   143123089.8871       1575.488          21.805  
E33                                                                  24004560.189   126144813.7971       1404.017          23.966  
G01  21440534.827   112670756.020        2676.881          30.311    21440530.929                        2000.577          18.915  
G08  20495907.079   107706719.119        -688.416          30.843    20495907.379    80430340.498        -514.048          28.869  
G10  22854729.000   120102383.927       -2476.242          35.857    22854736.495    89686887.870       -1849.083          24.360  
G14  23675889.623                        2110.333          24.924  
G21  20850179.921   109568409.416         848.637          26.101  
G22  23379990.869   122862701.162        2803.144          31.083  
G27  22269347.352   117026187.853       -2701.434          30.211    22269347.651    87389706.749       -2017.242          35.963  
G32  22867680.634   120170455.259        1580.531          37.951    22867681.533    89737692.042        1180.311          27.194  
R04  22023713.301                       -2827.837          18.272  
R05  19839639.503   106054169.199         939.586          36.697  
R12  23027275.749   123007684.534        1445.839          28.558  
R20  19867623.930                        -589.713          21.123  
R21  21106667.958   112946159.204        3020.755          34.912  
> 2022  9 17  7 28 39.0000010  0 24
C06  40099999.648   208811181.757        1810.204          28.611  
C09  41105002.299   214044588.317        2127.303          32.706  
C27  21717981.055   113091205.638        -353.620          34.360  
C28  24822903.062   129259341.617       -2329.657          36.194  
C30  22648494.274                        2375.262          23.187  
C33  25097505.159   130689300.992       -2269.725          34.574  
E07                                                                  25558948.108   134313218.104        1378.900          33.293    25558959.501   100298858.729        1029.633          37.641  
E08                                                                  27416761.371   144076076.013       -1195.963          28.096    27416770.065   107589293.141        -892.932          23.423  
E13                                                                  27900077.478   146615892.281       -1978.858          28.163    27900086.472   109485927.585       -1477.720          30.247  
E24                                                                  27235185.174   143121830.446        1574.525          22.486  
E33                                                                  24004356.630                        1403.007          23.221  
G01  21440086.037   112668395.153        2675.951          30.129  
G08  20496096.847   107707723.880        -689.677          30.699    20496099.845    80431090.831        -515.043          29.062  
G10  22855260.233   120105176.203       -2477.192          35.952    22855269.226    89688973.022       -1849.862          25.136  
G14  23675548.159                        2108.565          24.657  
G21  20850077.991   109567876.827         847.673          26.335  
G22  23379517.197   122860214.070        2802.176          30.461  
G27  22269922.653   117029205.243       -2702.306          30.655    22269921.754    87391960.026       -2017.987          35.919  
G32  22867441.100   120169190.963        1579.380          37.886    22867440.201                        1178.634          27.030  
R04  22024334.770                       -2830.353          18.320  
R05  19839516.289   106053551.681         938.031          36.614  
R12  23027060.498   123006560.501        1444.321          28.456  
R20  19867802.606                        -589.985          21.874  
R21  21106160.109   112943460.103        3019.951          35.193  
> 2022  9 17  7 28 40.0000012  0 24
C06  40099710.348   208809684.489        1809.487          29.071  
C09  41104652.741   214042773.958        2126.579          32.386  
C27  21718105.468   113091872.410        -354.552          34.098  
C28  24823413.608   129261984.253       -2330.416          36.307  
C30  22648100.047                        2373.809          22.722  
C33  25097999.217   130691883.951       -2270.739          34.190  
E07                                                                  25558743.350   134312155.496        1377.692          33.369    25558757.440   100298065.158        1028.861          37.730  
E08                                                                  27417047.073   144077588.011       -1196.914          27.895    27417056.667   107590422.290        -893.859          23.212  
E13                                                                  27900513.377   146618186.879       -1979.514          28.375    27900522.370   109487641.040       -1478.165          30.002  
E24                                                                  27234939.044                        1573.346          23.230  
E33                                                                  24004148.274                        1401.374          23.371  
G01  21439636.948   112666035.168        2675.069          30.291    21439635.149                        1997.023          20.025  
G08  20496287.515   107708729.686        -690.723          29.760    20496289.914    80431841.940        -515.819          29.199  
G10  22855791.765   120107969.353       -2478.066          35.794    22855798.960    89691058.828       -1850.516          24.719  
G14  23675214.490   124414038.4291       2108.464          24.743  
G21  20849978.160                         845.591          26.301  
G22  23379043.225   122857727.897        2801.258          30.499  
G27  22270498.555   117032223.616       -2703.288          30.821    22270496.156    87394213.978       -2018.662          35.395  
G32  22867200.966   120167927.869        1578.178          37.668    22867197.968    89735804.6771       1178.553          27.247  
R04  22024955.341                       -2830.496          17.570  
R05  19839405.365   106052935.715         936.478          36.511  
R12  23026867.731   123005437.814        1442.974          29.099  
R20  19867981.882                        -588.927          22.242  
R21  21105665.452   112940761.758        3019.195          35.793  
> 2022  9 17  7 28 41.0000015  0 24
C06  40099450.428   208808343.549        1809.270          29.406  
C09  41104335.261   214041115.809        2126.478          31.781  
C27  21718264.059   113092695.731        -354.992          34.212  
C28  24823947.539   129264783.221       -2330.639          35.920  
C30  22647734.600                        2374.644          20.802  
C33  25098524.153   130694623.354       -2271.074          34.906  
E07                                                                  25558573.668   134311250.855        1377.267          32.919    25558585.659   100297389.648        1028.445          37.659  
E08                                                                  27417365.753   144079258.125       -1197.488          28.002    27417376.845   107591669.482        -894.257          23.154  
E13                                                                  27900980.753   146620639.019       -1979.515          28.596    27900991.246   109489472.223       -1478.248          31.013  
E24                                                                  27234730.688                        1572.637          22.726  
E33                                                                  24003969.598   126141709.0451       1402.208          24.199  
G01  21439217.539   112663833.138        2674.656          31.046    21439216.939                        1997.347          19.954  
G08  20496508.462   107709893.764        -691.451          29.659    20496512.660    80432711.213        -516.338          29.065  
G10  22856356.274   120110920.391       -2478.412          35.512    22856363.769                       -1851.003          24.697  
G14  23674903.006   124412403.345        2107.710          26.009  
G21  20849896.617   109566971.7301        846.581          26.255  
G22  23378607.027   122855399.651        2800.871          31.513  
G27  22271100.838   117035399.878       -2703.636          32.151    22271100.838    87396585.890       -2018.977          35.682  
G32  22866994.709   120166822.944        1577.551          38.778    22866989.613                        1177.831          27.419  
R04  22025598.396                       -2830.859          15.275  
R05  19839294.442   106052480.984         935.500          36.465  
R12  23026696.250   123004476.223        1442.023          29.617  
R20  19868176.448                        -588.791          23.274  
R21  21105182.186   112938224.128        3018.905          34.340  
> 2022  9 17  7 28 42.0000017  0 24
C06  40099164.726   208806846.925        1808.844          29.106  
C09  41103988.701   214039302.000        2126.029          31.276  
C27  21718392.070   113093363.585        -355.634          34.472  
C28  24824456.586   129267426.533       -2331.093          36.104  
C30  22647334.077                        2373.842          21.876  
C33  25099022.408   130697207.126       -2271.552          34.198  
E07                                                                  25558373.406   134310189.463        1376.476          32.911    25558383.899   100296597.006        1027.931          37.546  
E08                                                                  27417652.654   144080771.254       -1198.044          28.122    27417663.447                        -895.245          23.490  
E13                                                                  27901416.351   146622934.021       -1979.918          28.917    27901426.844   109491186.003       -1478.490          30.894  
E24                                                                  27234491.454   143118214.3101       1572.443          19.392  
E33                                                                  24003763.640                        1401.481          25.449  
G01  21438766.651   112661474.025        2674.197          32.655    21438767.550                        1994.252          19.902  
G08  20496700.030   107710901.082        -692.234          29.922    20496702.728    80433463.373        -516.870          28.383  
G10  22856884.808   120113714.374       -2478.899          35.518    22856890.204                       -1850.529          23.910  
G14  23674557.945   124410611.596        2106.834          24.479  
G21  20849798.885   109566440.917         845.897          27.015  
G22  23378131.856   122852914.426        2800.309          31.104  
G27  22271674.940   117038419.153       -2704.191          32.169    22271676.439    87398840.507       -2019.326          35.594  
G32  22866750.978   120165561.229        1576.798          37.936    22866750.678    89734037.4331       1177.471          27.811  
R04  22026138.022                       -2836.931          15.808  
R05  19839198.209   106051867.166         934.330          36.551  
R12  23026492.391   123003355.549        1440.961          28.969  
R20  19868323.646                        -590.570          23.492  
R21  21104683.332   112935526.621        3018.358          35.186  
> 2022  9 17  7 28 43.0000019  0 24
C06  40098878.724   208805350.551        1808.593          29.872  
C09  41103638.843   214037488.273        2125.947          30.892  
C27  21718521.580   113094031.852        -356.048          34.395  
C28  24824963.535   129270070.092       -2331.339          35.585  
C30  22646942.248                        2370.089          23.563  
C33  25099517.965   130699791.446       -2272.100          34.456  
E07                                                                  25558169.847   134309128.575        1375.972          32.955    25558181.239   100295804.781        1027.515          37.410  
E08                                                                  27417947.350   144082284.921       -1198.584          28.514    27417950.348                        -894.676          22.979  
E13                                                                  27901857.046   146625229.053       -1979.948          29.975    27901862.443   109492899.782       -1478.489          29.950  
E24                                                                  27234257.916   143116957.599        1571.795          20.393  
E33                                                                  24003554.085   126139536.3561       1401.283          25.771  
G01  21438316.962   112659115.448        2673.661          32.264  
G08  20496892.796   107711909.058        -692.891          30.432    20496896.094    80434216.090        -517.426          28.284  
G10  22857417.839   120116508.735       -2479.277          35.211    22857425.933                       -1852.732          23.430  
G14  23674214.382                        2101.008          22.673  
G21  20849698.754   109565910.010         845.991          25.761  
G22  23377660.882   122850429.602        2799.909          30.948  
G27  22272253.840   117041438.845       -2704.608          31.951    22272249.642    87401095.488       -2019.691          35.815  
G32  22866510.544   120164300.265        1576.048          38.378    22866509.645    89733095.783        1176.940          28.174  
R04  22026732.510                       -2837.603          15.501  
R05  19839088.785   106051254.470         933.208          36.637  
R12  23026280.738   123002235.852        1439.984          29.213  
R20  19868514.314                        -595.495          24.000  
R21  21104180.580   112932829.414        3018.057          35.646  
> 2022  9 17  7 28 44.0000022  0 24
C06  40098621.502   208804010.938        1807.942          29.859  
C09  41103319.564   214035831.340        2125.262          30.594  
C27  21718678.672   113094857.163        -356.981          34.357  
C28  24825501.063   129272870.489       -2332.068          35.813  
C30  22646573.204                        2370.921          24.324  
C33  25100043.202   130702532.674       -2272.899          34.075  
E07                                                                  25557997.467   134308226.248        1374.952          32.788    25558009.458   100295130.946        1026.770          37.244  
E08                                                                  27418263.631   144083957.189       -1199.642          27.907    27418268.728   107595178.5301       -895.885          23.582  
E13                                                                  27902322.924   146627682.221       -1980.543          30.065    27902329.219   109494731.711       -1478.994          30.076  
E24                                                                  27234042.964                        1570.515          20.696  
E33                                                                  24003378.707   126138608.133        1400.848          26.664  
G01  21437896.053   112656915.063        2673.011          31.889  
G08  20497117.041   107713075.704        -694.021          30.562    20497116.741    80435087.204        -518.179          29.493  
G10  22857978.451   120119461.567       -2480.205          35.483    22857987.445                       -1853.254          21.023  
G14  23673904.697                        2103.336          20.554  
G21  20849631.001   109565537.890         844.746          23.547  
G22  23377218.388   122848103.305        2798.923          30.903  
G27  22272857.622   117044617.004       -2705.533          32.047    22272854.324    87403468.770       -2020.348          35.495  
G32  22866299.490   120163197.935        1574.957          38.195    22866301.589    89732272.601        1176.117          28.631  
R04  22027402.846                       -2845.008          12.995  
R05  19839000.346   106050803.492         931.747          36.873  
R12  23026105.959   123001277.659        1438.625          29.082  
R20  19868716.973                        -594.210          23.896  
R21  21103714.702   112930293.398        3017.290          35.381  
> 2022  9 17  7 28 45.0000024  0 23
C06  40098334.601   208802516.107        1807.051          30.083  
C09  41102972.404   214034019.095        2124.464          30.700  
C27  21718806.683   113095527.408        -358.025          34.559  
C28  24826009.811   129275515.622       -2332.913          35.787  
C30  22646179.576   117924598.4251       2371.215          24.210  
C33  25100541.457   130705118.837       -2273.944          33.540  
E07                                                                  25557796.606   134307167.481        1373.851          32.658    25557807.998   100294340.324        1025.912          37.423  
E08                                                                  27418553.530   144085472.924       -1200.651          28.142    27418559.526   107596310.416        -896.596          23.118  
E13                                                                  27902760.021   146629978.601       -1981.296          29.783    27902766.617   109496446.544       -1479.543          30.459  
E24                                                                  27233803.130                        1568.587          20.512  
E33                                                                  24003176.047                        1399.045          26.544  
G01  21437452.361   112654558.231        2671.916          31.363  
G08  20497304.711   107714085.945        -695.157          30.495    20497310.707    80435841.663        -519.169          29.464  
G10  22858513.281   120122257.812       -2481.161          35.288  
G14  23673565.332                        2101.413          19.866  
G21  20849533.868   109565009.125         843.849          24.609  
G22  23376745.016   122845620.307        2798.082          30.905  
G27  22273431.124   117047638.537       -2706.449          32.454    22273430.525    87405725.130       -2021.069          35.447  
G32  22866062.055   120161939.279        1573.739          38.276    22866060.855    89731332.703        1175.188          28.313  
R05  19838887.324   106050193.845         930.159          36.857  
R12  23025880.515   123000160.923        1437.023          28.503  
R20  19868880.360   106247745.4091       -594.954          24.453  
R21  21103208.053   112927597.821        3016.427          35.539  
> 2022  9 17  7 28 46.0000026  0 23
C06  40098046.800   208801021.967        1806.359          30.364  
C09  41102623.446   214032207.474        2123.841          30.675  
C27  21718935.594   113096198.479        -358.852          34.403  
C28  24826517.659   129278161.457       -2333.616          35.644  
C30  22645778.754                        2369.836          24.438  
C33  25101035.515   130707705.804       -2274.747          33.455  
E07                                                                  25557597.843   134306109.715        1372.850          32.589    25557606.837   100293550.406        1025.208          37.276  
E08                                                                  27418844.029   144086989.609       -1201.601          27.938    27418845.828                        -897.545          23.691  
E13                                                                  27903198.018   146632275.531       -1981.845          29.104    27903205.513   109498161.782       -1479.949          30.453  
E24                                                                  27233560.898   143113351.4341       1568.731          20.168  
E33                                                                  24002968.291   126136439.2921       1399.224          26.347  
G01  21437004.171   112652202.158        2671.158          31.667  
G08  20497498.077   107715097.319        -696.290          30.612    20497503.474    80436596.881        -519.928          29.801  
G10  22859040.615   120125054.778       -2481.882          34.958    22859052.607                       -1853.195          19.594  
G14  23673213.975                        2108.874          19.381  
G21  20849431.939   109564481.248         842.961          25.424  
G22  23376275.541   122843138.231        2797.160          30.772  
G27  22274006.126   117050660.942       -2707.321          32.527    22274006.126    87407982.107       -2021.687          35.345  
G32  22865820.722   120160681.789        1572.575          38.563    22865821.321    89730393.656        1174.337          28.651  
R05  19838766.508   106049585.690         928.668          36.669  
R12  23025666.463   122999045.443        1435.767          28.158  
R20  19869061.435                        -596.435          24.554  
R21  21102699.905   112924902.956        3015.715          35.590  
> 2022  9 17  7 28 47.0000029  0 22
C06  40097791.377   208799684.477        1805.819          30.111  
C09  41102305.966   214030552.427        2123.376          30.790  
C27  21719095.083   113097026.455        -359.646          34.082  
C28  24827057.885   129280963.962       -2334.176          35.604  
C30  22645415.105                        2371.229          23.903  
C33  25101562.850   130710449.694       -2275.561          33.533  
E07                                                                  25557425.463   134305210.379        1371.963          32.579    25557435.655   100292878.836        1024.505          37.360  
E08                                                                  27419155.514   144088664.611       -1202.376          27.513    27419165.707   107598693.8921       -897.984          23.680  
E13                                                                  27903664.495   146634730.435       -1982.278          29.230    27903671.090   109499994.947       -1480.229          30.338  
E24                                                                  27233353.142   143112256.211        1567.849          19.625  
E33                                                                  24002792.313   126135513.445        1398.474          26.905  
G01  21436584.162   112650004.383        2670.400          32.064  
G08  20497723.521   107716267.205        -697.259          30.325    20497726.519    80437470.504        -520.688          30.067  
G10  22859606.923   120128010.079       -2482.675          35.370    22859613.819                       -1854.648          21.423  
G21  20849364.186                         841.918          26.243  
G22  23375828.251   122840814.410        2796.446          30.673  
G27  22274611.407   117053841.624       -2708.057          32.533    22274610.508    87410357.290       -2022.248          35.440  
G32  22865612.666   120159582.749        1571.665          38.685    22865611.766    89729572.922        1173.669          28.719  
R05  19838681.067   106049139.149         927.309          36.893  
R12  23025491.984   122998091.492        1434.382          27.720  
R20  19869264.694                        -597.089          24.074  
R21  21102218.738   112922369.262        3014.969          35.414  
> 2022  9 17  7 28 48.0000031  0 22
C06  40097505.974   208798191.267        1805.430          29.636  
C09  41101959.106   214028741.682        2122.964          30.685  
C27  21719225.493   113097698.989        -360.315          34.459  
C28  24827563.635   129283610.818       -2334.636          35.414  
C30  22645019.979                        2365.714          22.866  
C33  25102060.505   130713037.973       -2276.060          33.707  
E07                                                                  25557224.302   134304154.229        1371.233          32.621    25557234.495   100292090.189        1023.937          37.332  
E08                                                                  27419449.010   144090182.836       -1203.141          27.445    27419454.706                        -898.542          23.881  
E13                                                                  27904102.792   146637028.085       -1982.567          29.525    27904108.787   109501710.686       -1480.449          30.444  
E24                                                                  27233119.604                        1562.730          18.853  
E33                                                                  24002586.355   126134430.361        1398.168          26.814  
G01  21436137.171   112647649.612        2669.855          31.842  
G08  20497914.189   107717280.322        -698.033          30.380    20497918.087    80438227.115        -521.321          30.272  
G10  22860139.055   120130808.348       -2483.186          35.375    22860148.648    89708113.9251      -1854.267          21.023  
G21  20849264.654                         841.358          26.351  
G22  23375358.176   122838333.717        2795.777          30.675  
G27  22275188.808   117056865.397       -2708.688          32.778    22275185.810    87412615.277       -2022.698          35.389  
G32  22865375.530   120158327.016        1570.818          38.580    22865373.731    89728635.238        1172.974          28.648  
R05  19838579.437   106048533.560         926.102          36.922  
R12  23025287.225   122996978.320        1433.459          27.879  
R20  19869443.071                        -598.850          23.904  
R21  21101718.984   112919675.578        3014.534          35.458  
> 2022  9 17  7 28 49.0000033  0 22
C06  40097217.274   208796698.194        1805.293          29.615  
C09  41101611.347   214026930.939        2122.963          30.858  
C27  21719356.502   113098371.730        -360.521          34.540  
C28  24828073.283   129286257.739       -2334.702          35.164  
C30  22644623.353                        2367.687          23.083  
C33  25102558.760   130715626.477       -2276.284          33.953  
E07                                                                  25557024.340   134303098.459        1370.855          32.501    25557033.034   100291301.738        1023.741          37.313  
E08                                                                  27419738.010   144091701.356       -1203.436          27.546    27419742.207                        -899.534          23.331  
E13                                                                  27904540.189   146639325.670       -1982.501          29.596    27904545.285   109503426.449       -1480.473          30.611  
E24                                                                  27232888.164   143109752.6571       1566.863          19.547  
E33                                                                  24002380.398   126133347.399        1398.047          27.028  
G01  21435688.981   112645295.046        2669.650          31.922  
G08  20498104.857   107718293.885        -698.480          29.992    20498110.553    80438983.967        -521.562          30.285  
G10  22860671.486   120133606.810       -2483.378          35.856    22860675.983                       -1854.554          20.501  
G21  20849158.828   109563058.4961        842.079          26.172  
G22  23374886.303   122835853.150        2795.651          30.477  
G27  22275762.311   117059889.293       -2708.812          33.320    22275761.411    87414873.415       -2022.848          35.561  
G32  22865132.998   120157071.752        1570.348          38.417    22865134.797    89727697.880        1172.648          28.896  
R05  19838461.919   106047928.822         925.250          37.039  
R12  23025066.578   122995865.974        1432.634          27.370  
R20  19869617.550                        -598.623          24.087  
R21  21101215.932   112916981.952        3014.476          35.053  
> 2022  9 17  7 28 50.0000036  0 24
C06  40096960.352   208795361.136        1805.387          29.507  
C09  41101295.066   214025276.153        2123.115          30.747  
C27  21719512.994   113099200.723        -360.664          34.230  
C28  24828609.012   129289060.753       -2334.684          34.804  
C30  22644264.202                        2374.247          23.214  
C33  25103084.896   130718371.296       -2276.490          33.878  
E07                                                                  25556853.758   134302200.445        1370.640          32.716    25556863.052   100290631.146        1023.528          37.279  
E08                                                                  27420057.589   144093377.614       -1203.632          28.047    27420063.285   107602213.2851       -898.799          23.553  
E13                                                                  27905006.666   146641780.575       -1982.279          30.075    27905012.362   109505259.671       -1480.287          30.664  
E24                                                                  27232673.512                        1566.080          19.587  
E33                                                                  24002201.722   126132421.899        1398.126          27.101  
G01  21435271.670   112643098.125        2669.547          31.996  
G08  20498324.605   107719465.323        -698.811          29.757    20498333.599    80439858.740        -521.839          30.204  
G10  22861238.394   120136562.854       -2483.418          35.741    22861243.790                       -1854.328          20.445  
G14  23671922.469                        2099.396          18.326  
G21  20849086.578   109562689.707         841.415          26.517  
G22  23374443.809   122833530.291        2795.485          30.706  
G27  22276367.891   117063070.882       -2708.963          33.466    22276367.592    87417249.270       -2022.920          35.292  
G32  22864927.040   120155974.415        1569.963          38.419    22864925.541    89726878.415        1172.400          28.938  
R05  19838381.574   106047485.067         924.524          36.937  
R11  22478244.835                       -2152.122          23.368  
R12  23024890.000   122994914.398        1432.008          27.854  
R20  19869819.011                        -597.824          23.102  
R21  21100739.862   112914448.823        3014.403          34.756  
> 2022  9 17  7 28 51.0000038  0 23
C06  40096670.752   208793866.427        1806.928          29.511  
C09  41100945.807   214023463.754        2124.619          30.907  
C27  21719643.704   113099872.339        -359.396          34.400  
C28  24829121.357   129291706.127       -2333.155          34.750  
C30  22643861.881                        2371.810          22.530  
C33  25103580.753   130720958.551       -2275.035          33.731  
E07                                                                  25556654.097   134301143.595        1371.934          32.831    25556661.891   100289841.977        1024.459          37.297  
E08                                                                  27420346.589   144094895.063       -1202.365          28.792    27420350.786                        -897.715          23.773  
E13                                                                  27905442.564   146644076.297       -1980.638          30.317    27905449.759   109506974.003       -1479.042          30.666  
E33                                                                  24001993.965                        1400.546          26.726  
G01  21434819.583   112640742.185        2671.024          31.952  
G08  20498520.070   107720478.090        -697.683          29.554    20498527.864    80440614.994        -520.964          30.057  
G10  22861765.129   120139359.958       -2482.020          35.475    22861774.423                       -1853.311          20.194  
G14  23671583.104                        2097.938          16.976  
G21  20848993.942   109562161.877         842.913          26.130  
G22  23373971.336   122831048.450        2796.924          31.111  
G27  22276943.793   117066093.520       -2707.554          33.398    22276942.294    87419506.432       -2021.873          35.455  
G32  22864686.007   120154718.287        1571.212          38.041    22864686.607    89725940.500        1173.205          29.045  
R05  19838264.655   106046880.214         925.366          36.840  
R11  22478675.037                       -2150.181          22.927  
R12  23024682.544   122993801.789        1432.896          27.783  
R20  19869972.504                        -596.738          23.070  
R21  21100231.414   112911753.716        3015.957          34.820  
> 2022  9 17  7 28 52.0000040  0 24
C06  40096384.750   208792369.990        1808.657          29.401  
C09  41100597.748   214021649.485        2126.488          30.840  
C27  21719770.816   113100542.393        -357.835          34.571  
C28  24829626.207   129294349.786       -2331.439          34.624  
C30  22643475.748                        2369.864          21.584  
C33  25104081.406   130723544.279       -2273.508          33.672  
E07                                                                  25556452.936   134300085.391        1373.289          33.021    25556461.330   100289051.761        1025.506          37.407  
E08                                                                  27420634.390   144096410.960       -1200.813          28.824    27420638.287                        -895.863          22.946  
E13                                                                  27905878.462   146646370.159       -1978.777          30.837    27905886.557   109508686.933       -1477.640          30.405  
E24                                                                  27232198.641                        1570.310          20.618  
E33                                                                  24001784.710   126130251.2321       1401.278          26.760  
G01  21434373.492   112638384.715        2672.554          31.903  
G08  20498712.836   107721489.532        -696.358          29.195    20498718.832    80441370.327        -520.043          30.275  
G10  22862302.957   120142155.503       -2480.461          35.524    22862307.454                       -1851.875          19.833  
G14  23671239.542                        2101.260          19.205  
G21  20848890.513   109561632.476         844.486          25.729  
G22  23373500.962   122828565.103        2798.432          31.419  
G27  22277521.193   117069114.626       -2706.022          33.793    22277516.996    87421762.434       -2020.712          35.251  
G32  22864448.572   120153460.950        1572.421          38.190    22864447.372    89725001.550        1174.240          28.971  
R05  19838153.432   106046274.419         926.307          37.158  
R11  22479143.912                       -2150.900          23.543  
R12  23024485.281   122992688.046        1434.030          27.886  
R20  19870153.279                        -592.815          23.362  
R21  21099729.561   112909056.843        3017.723          34.683  
> 2022  9 17  7 28 53.0000043  0 25
