     3.03           OBSERVATION DATA    M: Mixed            RINEX VERSION / TYPE
Geo++ RINEX Logger  Geo++               20220917 122640 UTC PGM / RUN BY / DATE
************************************************************COMMENT
This file was generated by the Geo++ RINEX Logger App       COMMENT
for Android devices (Version 2.1.6). If you encounter       COMMENT
any issues, please send an email to android@geopp.de        COMMENT
Filtering Mode: MORE                                        COMMENT
************************************************************COMMENT
Geo++                                                       MARKER NAME
GEODETIC                                                    MARKER TYPE
Geo++               Geo++                                   OBSERVER / AGENCY
unknown             Xiaomi              MI 8                REC # / TYPE / VERS
unknown             MI 8                                    ANT # / TYPE
  4410311.7992   193653.8885  4588672.1672                  APPROX POSITION XYZ
        0.0000        0.0000        0.0000                  ANTENNA: DELTA H/E/N
G    8 C1C L1C D1C S1C C5Q L5Q D5Q S5Q                      SYS / # / OBS TYPES
R    4 C1C L1C D1C S1C                                      SYS / # / OBS TYPES
E   12 C1B L1B D1B S1B C1C L1C D1C S1C C5Q L5Q D5Q S5Q      SYS / # / OBS TYPES
C    4 C2I L2I D2I S2I                                      SYS / # / OBS TYPES
J    8 C1C L1C D1C S1C C5Q L5Q D5Q S5Q                      SYS / # / OBS TYPES
  2022     9    17    12    26   58.0400004     GPS         TIME OF FIRST OBS
 24 R01  1 R02 -4 R03  5 R04  6 R05  1 R06 -4 R07  5 R08  6 GLONASS SLOT / FRQ #
    R09 -2 R10 -5 R11  0 R12 -1 R13 -2 R14 -7 R15  0 R16 -1 GLONASS SLOT / FRQ #
    R17  4 R18 -3 R19  3 R20  2 R21  4 R22 -3 R23  3 R24  2 GLONASS SLOT / FRQ #
G L1C                                                       SYS / PHASE SHIFT
G L5Q -0.25000                                              SYS / PHASE SHIFT
R L1C                                                       SYS / PHASE SHIFT
E L1B                                                       SYS / PHASE SHIFT
E L1C +0.50000                                              SYS / PHASE SHIFT
E L5Q -0.25000                                              SYS / PHASE SHIFT
C L2I                                                       SYS / PHASE SHIFT
J L1C                                                       SYS / PHASE SHIFT
J L5Q -0.25000                                              SYS / PHASE SHIFT
 C1C    0.000 C1P    0.000 C2C    0.000 C2P    0.000        GLONASS COD/PHS/BIS
                                                            END OF HEADER
> 2022  9 17 12 26 58.0400004  0  0
> 2022  9 17 12 26 58.6820006  0  0
> 2022  9 17 12 26 59.6820007  0  0
> 2022  9 17 12 27  0.6820009  0  0
> 2022  9 17 12 27  1.6820011  0  0
> 2022  9 17 12 27  2.6820013  0  0
> 2022  9 17 12 27  3.6820015  0  0
> 2022  9 17 12 27  4.6820017  0  0
> 2022  9 17 12 27  5.6820019  0  0
> 2022  9 17 12 27  6.6820020  0  0
> 2022  9 17 12 27  7.6376894  0  0
> 2022  9 17 12 27  8.6640706  0  0
> 2022  9 17 12 27  9.6477790  0  0
> 2022  9 17 12 27 10.6467019  0  0
> 2022  9 17 12 27 11.6450996  0  0
> 2022  9 17 12 27 12.6389720  0  0
> 2022  9 17 12 27 13.6412622  0  0
> 2022  9 17 12 27 14.6398524  0  0
> 2022  9 17 12 27 15.6438857  0  0
> 2022  9 17 12 27 16.6401598  0  0
> 2022  9 17 12 27 17.6388194  0  0
> 2022  9 17 12 27 18.6383802  0  0
> 2022  9 17 12 27 19.6368041  0  0
> 2022  9 17 12 27 20.6386357  0  0
> 2022  9 17 12 27 21.6362059  0  0
> 2022  9 17 12 27 22.6336649  0  0
> 2022  9 17 12 27 23.6317362  0  0
> 2022  9 17 12 27 24.6343450  0  0
> 2022  9 17 12 27 25.6340043  0  0
> 2022  9 17 12 27 26.6336876  0  0
> 2022  9 17 12 27 27.6346995  0  0
> 2022  9 17 12 27 28.6341505  0  0
> 2022  9 17 12 27 29.6345196  0  0
> 2022  9 17 12 27 30.6334919  0  0
> 2022  9 17 12 27 31.6368944  0  0
> 2022  9 17 12 27 32.6365024  0  0
> 2022  9 17 12 27 33.6328844  0  0
> 2022  9 17 12 27 34.6354555  0  0
> 2022  9 17 12 27 35.6305921  0  0
> 2022  9 17 12 27 36.6337940  0  0
> 2022  9 17 12 27 37.6387491  0  0
> 2022  9 17 12 27 38.6330679  0  0
> 2022  9 17 12 27 39.6292544  0  0
> 2022  9 17 12 27 40.6249500  0  0
> 2022  9 17 12 27 41.6262523  0  0
> 2022  9 17 12 27 42.6306717  0  0
> 2022  9 17 12 27 43.6335142  0  0
> 2022  9 17 12 27 44.6284290  0  0
> 2022  9 17 12 27 45.6270814  0  0
> 2022  9 17 12 27 46.6220500  0  0
> 2022  9 17 12 27 47.6266648  0  0
> 2022  9 17 12 27 48.6198937  0  0
> 2022  9 17 12 27 49.6136397  0  0
> 2022  9 17 12 27 50.6151825  0  0
> 2022  9 17 12 27 51.6071145  0  0
> 2022  9 17 12 27 52.5942548  0  0
> 2022  9 17 12 27 53.5942550  0  0
> 2022  9 17 12 27 54.6421318  0  0
> 2022  9 17 12 27 55.6231361  0  0
> 2022  9 17 12 27 56.6258739  0  0
> 2022  9 17 12 27 57.6294062  0  0
> 2022  9 17 12 27 58.6325571  0  0
> 2022  9 17 12 27 59.6363289  0  0
> 2022  9 17 12 28  0.6446693  0  0
> 2022  9 17 12 28  1.6238449  0  0
> 2022  9 17 12 28  2.6171754  0  0
> 2022  9 17 12 28  3.6266049  0  0
> 2022  9 17 12 28  4.6266051  0  0
> 2022  9 17 12 28  5.6340740  0  0
> 2022  9 17 12 28  6.6294740  0  0
> 2022  9 17 12 28  7.6235335  0  0
> 2022  9 17 12 28  8.6332989  0  0
> 2022  9 17 12 28  9.6294087  0  0
> 2022  9 17 12 28 10.6417672  0  0
> 2022  9 17 12 28 11.6364388  0  0
> 2022  9 17 12 28 12.6387504  0  0
> 2022  9 17 12 28 13.6357583  0  0
> 2022  9 17 12 28 14.6460242  0  0
> 2022  9 17 12 28 15.6426040  0  0
> 2022  9 17 12 28 16.6424021  0  0
> 2022  9 17 12 28 17.6156334  0  0
> 2022  9 17 12 28 18.6151012  0  0
> 2022  9 17 12 28 19.6297662  0  0
> 2022  9 17 12 28 20.6416201  0  0
> 2022  9 17 12 28 21.6386000  0  0
> 2022  9 17 12 28 22.6356846  0  0
> 2022  9 17 12 28 23.6528793  0  0
> 2022  9 17 12 28 24.6314996  0  0
> 2022  9 17 12 28 25.6430793  0  0
> 2022  9 17 12 28 26.6519741  0  0
> 2022  9 17 12 28 27.6168190  0  0
> 2022  9 17 12 28 28.6481342  0  0
> 2022  9 17 12 28 29.6475655  0  0
> 2022  9 17 12 28 30.6160503  0  0
> 2022  9 17 12 28 31.6155557  0  0
> 2022  9 17 12 28 32.6444675  0  0
> 2022  9 17 12 28 33.6532772  0  0
> 2022  9 17 12 28 34.6494832  0  0
> 2022  9 17 12 28 35.6418135  0  0
> 2022  9 17 12 28 36.6462748  0  0
> 2022  9 17 12 28 37.6275846  0  0
> 2022  9 17 12 28 38.6268807  0  0
> 2022  9 17 12 28 39.6272103  0  0
> 2022  9 17 12 28 40.6565535  0  0
> 2022  9 17 12 28 41.6402615  0  0
> 2022  9 17 12 28 42.6481924  0  0
> 2022  9 17 12 28 43.6414132  0  0
> 2022  9 17 12 28 44.6369772  0  0
> 2022  9 17 12 28 45.6439085  0  0
> 2022  9 17 12 28 46.6320598  0  0
> 2022  9 17 12 28 47.6291799  0  0
> 2022  9 17 12 28 48.6300186  0  0
> 2022  9 17 12 28 49.6263087  0  0
> 2022  9 17 12 28 50.6335067  0  0
> 2022  9 17 12 28 51.6295754  0  0
> 2022  9 17 12 28 52.6292168  0  0
> 2022  9 17 12 28 53.6269096  0  0
> 2022  9 17 12 28 54.6395603  0  0
> 2022  9 17 12 28 55.6413694  0  0
> 2022  9 17 12 28 56.6154721  0  0
> 2022  9 17 12 28 57.6424606  0  0
> 2022  9 17 12 28 58.6308172  0  0
> 2022  9 17 12 28 59.6373434  0  0
> 2022  9 17 12 29  0.6387369  0  0
> 2022  9 17 12 29  1.6270242  0  0
> 2022  9 17 12 29  2.6304806  0  0
> 2022  9 17 12 29  3.6314783  0  0
> 2022  9 17 12 29  4.6293058  0  0
> 2022  9 17 12 29  5.6318096  0  0
> 2022  9 17 12 29  6.6331717  0  0
> 2022  9 17 12 29  7.6246535  0  0
> 2022  9 17 12 29  8.6357506  0  0
> 2022  9 17 12 29  9.6346428  0  0
> 2022  9 17 12 29 10.6361779  0  0
> 2022  9 17 12 29 11.6543665  0  0
> 2022  9 17 12 29 12.6445056  0  0
> 2022  9 17 12 29 13.6392038  0  0
> 2022  9 17 12 29 14.6383713  0  0
> 2022  9 17 12 29 15.6582564  0  0
> 2022  9 17 12 29 16.6391563  0  0
> 2022  9 17 12 29 17.6500782  0  0
> 2022  9 17 12 29 18.6359273  0  0
> 2022  9 17 12 29 19.6231813  0  0
> 2022  9 17 12 29 20.6363953  0  0
> 2022  9 17 12 29 21.6365243  0  0
> 2022  9 17 12 29 22.6406276  0  0
> 2022  9 17 12 29 23.6555414  0  0
> 2022  9 17 12 29 24.6357188  0  0
> 2022  9 17 12 29 25.6357190  0  0
> 2022  9 17 12 29 26.6809171  0  0
> 2022  9 17 12 29 27.6462869  0  0
> 2022  9 17 12 29 28.6390032  0  0
> 2022  9 17 12 29 29.6256952  0  0
> 2022  9 17 12 29 30.6188072  0  0
> 2022  9 17 12 29 31.6288966  0  0
> 2022  9 17 12 29 32.6207152  0  0
> 2022  9 17 12 29 33.6344216  0  0
> 2022  9 17 12 29 34.6321425  0  0
> 2022  9 17 12 29 35.6319647  0  0
> 2022  9 17 12 29 36.6227142  0  0
> 2022  9 17 12 29 37.6268270  0  0
> 2022  9 17 12 29 38.6262465  0  0
> 2022  9 17 12 29 39.6264540  0  0
> 2022  9 17 12 29 40.6359838  0  0
> 2022  9 17 12 29 41.6385820  0  0
> 2022  9 17 12 29 42.6259844  0  0
> 2022  9 17 12 29 43.6298541  0  0
> 2022  9 17 12 29 44.6257168  0  0
> 2022  9 17 12 29 45.6245294  0  0
> 2022  9 17 12 29 46.6284831  0  0
> 2022  9 17 12 29 47.6326510  0  0
> 2022  9 17 12 29 48.6333057  0  0
> 2022  9 17 12 29 49.6793418  0  0
> 2022  9 17 12 29 50.6294497  0  0
> 2022  9 17 12 29 51.6312359  0  0
> 2022  9 17 12 29 52.6304280  0  0
> 2022  9 17 12 29 53.6324431  0  0
> 2022  9 17 12 29 54.6330742  0  0
> 2022  9 17 12 29 55.6299792  0  0
> 2022  9 17 12 29 56.6306718  0  0
> 2022  9 17 12 29 57.6325366  0  0
> 2022  9 17 12 29 58.6287808  0  0
> 2022  9 17 12 29 59.6321565  0  0
> 2022  9 17 12 30  0.6350962  0  0
> 2022  9 17 12 30  1.6356212  0  0
> 2022  9 17 12 30  2.6367668  0  0
> 2022  9 17 12 30  3.6338213  0  0
> 2022  9 17 12 30  4.6349129  0  0
> 2022  9 17 12 30  5.6388079  0  0
> 2022  9 17 12 30  6.6202514  0  0
> 2022  9 17 12 30  7.5997498  0  0
> 2022  9 17 12 30  8.5766346  0  0
> 2022  9 17 12 30  9.6320797  0  0
> 2022  9 17 12 30 10.6293904  0  0
> 2022  9 17 12 30 11.6254834  0  0
> 2022  9 17 12 30 12.6426474  0  0
> 2022  9 17 12 30 13.6428987  0  0
> 2022  9 17 12 30 14.6442441  0  0
> 2022  9 17 12 30 15.6438954  0  0
> 2022  9 17 12 30 16.6440740  0  0
> 2022  9 17 12 30 17.6448068  0  0
> 2022  9 17 12 30 18.6421763  0  0
> 2022  9 17 12 30 19.6420585  0  0
> 2022  9 17 12 30 20.6430409  0  0
> 2022  9 17 12 30 21.6430619  0  0
> 2022  9 17 12 30 22.6402039  0  0
> 2022  9 17 12 30 23.6432006  0  0
> 2022  9 17 12 30 24.6401194  0  0
> 2022  9 17 12 30 25.6439537  0  0
> 2022  9 17 12 30 26.6438944  0  0
> 2022  9 17 12 30 27.6471681  0  0
> 2022  9 17 12 30 28.6423668  0  0
> 2022  9 17 12 30 29.6340530  0  0
> 2022  9 17 12 30 30.6287853  0  0
> 2022  9 17 12 30 31.6333107  0  0
> 2022  9 17 12 30 32.6317875  0  0
> 2022  9 17 12 30 33.6305267  0  0
> 2022  9 17 12 30 34.6362817  0  0
> 2022  9 17 12 30 35.6387172  0  0
> 2022  9 17 12 30 36.6389543  0  0
> 2022  9 17 12 30 37.6394253  0  0
> 2022  9 17 12 30 38.6361723  0  0
> 2022  9 17 12 30 39.6344869  0  0
> 2022  9 17 12 30 40.6243223  0  0
> 2022  9 17 12 30 41.6269316  0  0
> 2022  9 17 12 30 42.6287908  0  0
> 2022  9 17 12 30 43.6229947  0  0
> 2022  9 17 12 30 44.6298870  0  0
> 2022  9 17 12 30 45.6319144  0  0
> 2022  9 17 12 30 46.6353351  0  0
> 2022  9 17 12 30 47.6358302  0  0
> 2022  9 17 12 30 48.6371067  0  0
> 2022  9 17 12 30 49.6378904  0  0
> 2022  9 17 12 30 50.6365117  0  0
> 2022  9 17 12 30 51.6404394  0  0
> 2022  9 17 12 30 52.6429354  0  0
> 2022  9 17 12 30 53.6327614  0  0
> 2022  9 17 12 30 54.6325274  0  0
> 2022  9 17 12 30 55.6321781  0  0
> 2022  9 17 12 30 56.6337165  0  0
> 2022  9 17 12 30 57.6305641  0  0
> 2022  9 17 12 30 58.6279341  0  0
> 2022  9 17 12 30 59.6274357  0  0
> 2022  9 17 12 31  0.6342474  0  0
> 2022  9 17 12 31  1.6300960  0  0
> 2022  9 17 12 31  2.6240440  0  0
> 2022  9 17 12 31  3.6257974  0  0
> 2022  9 17 12 31  4.6440733  0  0
> 2022  9 17 12 31  5.6444224  0  0
> 2022  9 17 12 31  6.6373799  0  0
> 2022  9 17 12 31  7.6232518  0  0
> 2022  9 17 12 31  8.6273574  0  0
> 2022  9 17 12 31  9.6313146  0  0
> 2022  9 17 12 31 10.6356367  0  0
> 2022  9 17 12 31 11.6306284  0  0
> 2022  9 17 12 31 12.6361615  0  0
> 2022  9 17 12 31 13.6326258  0  0
> 2022  9 17 12 31 14.6281271  0  0
> 2022  9 17 12 31 15.6295418  0  0
> 2022  9 17 12 31 16.6326042  0  0
> 2022  9 17 12 31 17.6249071  0  0
> 2022  9 17 12 31 18.6256399  0  0
> 2022  9 17 12 31 19.6110321  0  0
> 2022  9 17 12 31 20.6177766  0  0
> 2022  9 17 12 31 21.6213281  0  0
> 2022  9 17 12 31 22.6125141  0  0
> 2022  9 17 12 31 23.6063137  0  0
> 2022  9 17 12 31 24.6288859  0  0
> 2022  9 17 12 31 25.6239079  0  0
> 2022  9 17 12 31 26.6271769  0  0
> 2022  9 17 12 31 27.6369516  0  0
> 2022  9 17 12 31 28.6362702  0  0
> 2022  9 17 12 31 29.6340331  0  0
> 2022  9 17 12 31 30.6353791  0  0
> 2022  9 17 12 31 31.6410657  0  0
> 2022  9 17 12 31 32.6356597  0  0
> 2022  9 17 12 31 33.6334663  0  0
> 2022  9 17 12 31 34.6273274  0  0
> 2022  9 17 12 31 35.6122185  0  0
> 2022  9 17 12 31 36.6076351  0  0
> 2022  9 17 12 31 37.6207922  0  0
> 2022  9 17 12 31 38.6292468  0  0
> 2022  9 17 12 31 39.6310535  0  0
> 2022  9 17 12 31 40.6332338  0  0
> 2022  9 17 12 31 41.6294287  0  0
> 2022  9 17 12 31 42.6332506  0  0
> 2022  9 17 12 31 43.6343877  0  0
> 2022  9 17 12 31 44.6371899  0  0
> 2022  9 17 12 31 45.6304998  0  0
> 2022  9 17 12 31 46.6361525  0  0
> 2022  9 17 12 31 47.6354485  0  0
> 2022  9 17 12 31 48.6258281  0  0
> 2022  9 17 12 31 49.6267103  0  0
> 2022  9 17 12 31 50.6223790  0  0
> 2022  9 17 12 31 51.6212475  0  0
> 2022  9 17 12 31 52.6175972  0  0
> 2022  9 17 12 31 53.6223139  0  0
> 2022  9 17 12 31 54.6269399  0  0
> 2022  9 17 12 31 55.6261265  0  0
> 2022  9 17 12 31 56.6273262  0  0
> 2022  9 17 12 31 57.6345456  0  0
> 2022  9 17 12 31 58.6293048  0  0
> 2022  9 17 12 31 59.6233293  0  0
> 2022  9 17 12 32  0.6156862  0  0
> 2022  9 17 12 32  1.6124677  0  0
> 2022  9 17 12 32  2.6112631  0  0
> 2022  9 17 12 32  3.6113866  0  0
> 2022  9 17 12 32  4.6216252  0  0
> 2022  9 17 12 32  5.6282668  0  0
> 2022  9 17 12 32  6.6290586  0  0
> 2022  9 17 12 32  7.6077130  0  0
> 2022  9 17 12 32  8.6112415  0  0
> 2022  9 17 12 32  9.6250642  0  0
> 2022  9 17 12 32 10.6096391  0  0
> 2022  9 17 12 32 11.6272037  0  0
> 2022  9 17 12 32 12.6277329  0  0
> 2022  9 17 12 32 13.6302395  0  0
> 2022  9 17 12 32 14.6329803  0  0
> 2022  9 17 12 32 15.6376476  0  0
> 2022  9 17 12 32 16.6367897  0  0
> 2022  9 17 12 32 17.6376123  0  0
> 2022  9 17 12 32 18.6320916  0  0
> 2022  9 17 12 32 19.6318329  0  0
> 2022  9 17 12 32 20.6471584  0  0
> 2022  9 17 12 32 21.6414430  0  0
> 2022  9 17 12 32 22.6395834  0  0
> 2022  9 17 12 32 23.6382369  0  0
> 2022  9 17 12 32 24.6365658  0  0
> 2022  9 17 12 32 25.6331210  0  0
> 2022  9 17 12 32 26.6336941  0  0
> 2022  9 17 12 32 27.6367323  0  0
> 2022  9 17 12 32 28.6349427  0  0
> 2022  9 17 12 32 29.6381091  0  0
> 2022  9 17 12 32 30.6381047  0  0
> 2022  9 17 12 32 31.6413180  0  0
> 2022  9 17 12 32 32.6406303  0  0
> 2022  9 17 12 32 33.6424907  0  0
> 2022  9 17 12 32 34.6371267  0  0
> 2022  9 17 12 32 35.6347229  0  0
> 2022  9 17 12 32 36.6334084  0  0
> 2022  9 17 12 32 37.6359896  0  0
> 2022  9 17 12 32 38.6372126  0  0
> 2022  9 17 12 32 39.6352378  0  0
