     3.03           OBSERVATION DATA    M: Mixed            RINEX VERSION / TYPE
Geo++ RINEX Logger  Geo++               20220917 061610 UTC PGM / RUN BY / DATE
************************************************************COMMENT
This file was generated by the Geo++ RINEX Logger App       COMMENT
for Android devices (Version 2.1.6). If you encounter       COMMENT
any issues, please send an email to android@geopp.de        COMMENT
Filtering Mode: BEST                                        COMMENT
************************************************************COMMENT
Geo++                                                       MARKER NAME
GEODETIC                                                    MARKER TYPE
Geo++               Geo++                                   OBSERVER / AGENCY
unknown             Xiaomi              MI 8                REC # / TYPE / VERS
unknown             MI 8                                    ANT # / TYPE
  4410317.3782   193656.3768  4588676.2725                  APPROX POSITION XYZ
        0.0000        0.0000        0.0000                  ANTENNA: DELTA H/E/N
G    8 C1C L1C D1C S1C C5Q L5Q D5Q S5Q                      SYS / # / OBS TYPES
R    4 C1C L1C D1C S1C                                      SYS / # / OBS TYPES
E   12 C1B L1B D1B S1B C1C L1C D1C S1C C5Q L5Q D5Q S5Q      SYS / # / OBS TYPES
C    4 C2I L2I D2I S2I                                      SYS / # / OBS TYPES
J    8 C1C L1C D1C S1C C5Q L5Q D5Q S5Q                      SYS / # / OBS TYPES
  2022     9    17     6    16   28.9997832     GPS         TIME OF FIRST OBS
 24 R01  1 R02 -4 R03  5 R04  6 R05  1 R06 -4 R07  5 R08  6 GLONASS SLOT / FRQ #
    R09 -2 R10 -5 R11  0 R12 -1 R13 -2 R14 -7 R15  0 R16 -1 GLONASS SLOT / FRQ #
    R17  4 R18 -3 R19  3 R20  2 R21  4 R22 -3 R23  3 R24  2 GLONASS SLOT / FRQ #
G L1C                                                       SYS / PHASE SHIFT
G L5Q -0.25000                                              SYS / PHASE SHIFT
R L1C                                                       SYS / PHASE SHIFT
E L1B                                                       SYS / PHASE SHIFT
E L1C +0.50000                                              SYS / PHASE SHIFT
E L5Q -0.25000                                              SYS / PHASE SHIFT
C L2I                                                       SYS / PHASE SHIFT
J L1C                                                       SYS / PHASE SHIFT
J L5Q -0.25000                                              SYS / PHASE SHIFT
 C1C    0.000 C1P    0.000 C2C    0.000 C2P    0.000        GLONASS COD/PHS/BIS
                                                            END OF HEADER
> 2022  9 17  6 16 28.9997832  2  0
> 2022  9 17  6 16 28.9997832  0 23
C13  40880098.896                        -504.276          23.770  
C14  24756044.547                       -1461.105          30.122  
C27  21722197.635                        1231.894          19.669  
C28  22927362.717   119388793.3611      -1268.617          38.116  
C30  24613994.486   128171528.2191       3165.134          27.981  
C33  23671251.534                         -49.630          28.420  
C36  25241522.158                         482.278          18.701  
E08                                                                  26939445.010   141567739.2901       1016.856          32.489  
E13                                                                  26018621.983   136728781.6271      -1638.260          30.715  
E26                                                                  23850980.110   125337746.5721        252.060          24.717  
E31                                                                  25498398.726   133994990.1801       1422.007          32.158    25498397.527   100061187.8961       1061.767          25.760  
E33                                                                  25145579.577                        2295.785          24.135    25145585.274                        1722.124          19.733  
G08  20570203.444   108097147.7451       1718.531          32.507    20570207.042    80721910.4141       1283.340          27.697  
G10  21223175.102                        -316.540          29.818    21223184.995    83284336.3441       -235.787          36.479  
G21  21754479.587                        2299.969          21.958  
G23  22799734.172                       -2147.535          26.454  
G27  20418426.917   107299557.0071       -748.967          33.158  
G32  24652181.150   129548085.5331       3378.722          29.837  
R03  23108210.419   123700059.5141      -2474.401          32.817  
R04  20765962.523   111200785.9021        923.114          30.101  
R05  21740958.947   116217885.3551       4339.740          32.588  
R11  21804193.271                        1633.589          22.023  
R19  21592712.176                       -1976.748          17.890  
> 2022  9 17  6 16 29.9997836  0 23
C13  40880310.550   212874529.3981       -502.492          24.828  
C14  24756444.770   128913306.0061      -1461.238          29.591  
C27  21722079.817                        1235.741          15.731  
C28  22927724.866   119390686.201       -1268.401          38.642  
C30  24613509.122   128168986.950        3165.709          28.785  
C33  23671381.044   123263092.1781        -49.503          27.728  
C36  25241553.936                         482.720          18.305  
E07                                                                  27078855.099                        3055.347          33.033  
E08                                                                  26939371.561   141567352.631        1016.827          32.987    26939370.962                         759.052          25.385  
E13                                                                  26019054.583   136731049.732       -1637.937          30.089  
E26                                                                  23851051.161                         252.916          23.950  
E31                                                                  25498247.331   133994198.333        1422.015          32.165    25498248.530   100060596.560        1061.916          26.902  
E33                                                                  25145271.391                        2295.422          24.297    25145270.491                        1711.792          18.170  
G08  20569999.586   108096059.319        1718.594          30.506    20570002.284    80721097.627        1283.367          27.973  
G10  21223353.778   111529483.4231       -315.810          29.394    21223364.870    83285042.785        -235.861          37.362  
G23  22800263.006                       -2147.636          25.526  
G27  20418686.837   107300936.096        -748.921          34.372  
G32  24651655.314   129545336.826        3378.875          30.116    24651652.316    96738378.1921       2523.186          26.764  
R03  23108793.215   123703175.976       -2474.537          32.564  
R04  20765900.766   111200505.461         922.591          31.487  
R05  21740268.525   116214186.588        4339.792          32.292  
R11  21804012.796                        1630.864          22.324  
R19  21593189.446                       -1972.516          17.549  
> 2022  9 17  6 16 30.9997840  0 23
C13  40880528.199                        -502.470          24.365  
C14  24756846.192   128915392.264       -1461.818          29.451  
C27  21721963.198                        1239.184          13.861  
C28  22928088.814   119392579.445       -1268.805          38.119  
C30  24613021.060   128166445.986        3165.403          29.087  
C33  23671510.254                         -50.370          26.610  
E07                                                                  27078388.921   142297919.3821       3055.051          32.953  
E08                                                                  26939296.913   141566966.609        1016.189          32.705    26939297.512   105715588.6571        758.914          25.781  
E13                                                                  26019486.284   136733318.020       -1638.119          30.331    26019495.578   102106088.6511      -1223.221          22.783  
E26                                                                  23851121.612   125338501.9341        252.231          23.986  
E31                                                                  25498096.835   133993407.151        1421.350          32.110    25498096.835                        1061.787          26.892  
E33                                                                  25144951.812   132137580.9421       2295.736          24.122    25144953.911                        1715.645          18.779  
G08  20569795.127   108094971.449        1718.038          30.691    20569793.628    80720285.240        1282.967          27.584  
G10  21223534.553   111530430.239        -316.648          29.075    21223544.746    83285749.881        -236.516          37.134  
G21  21753845.226   114317224.7391       2298.265          25.562  
G23  22800796.937                       -2148.651          24.657  
G27  20418946.158   107302315.905        -749.641          34.914  
G32  24651133.975   129542588.909        3378.085          30.455    24651127.679    96736325.730        2523.043          25.732  
R03  23109373.314   123706293.225       -2475.325          32.451  
R04  20765851.300   111200226.121         921.490          31.858  
R05  21739571.208   116210488.478        4339.135          32.815  
R11  21803835.319                        1627.350          21.429  
R19  21593698.194                       -1969.920          17.796  
> 2022  9 17  6 16 31.9997843  0 23
C13  40880717.968   212876628.0131       -503.204          25.181  
C14  24757219.134   128917323.436       -1462.843          28.837  
C27  21721824.394                        1229.533          18.163  
C28  22928424.282   119394317.386       -1269.612          38.140  
C30  24612503.019   128163749.553        3164.762          29.450  
C33  23671600.792                         -52.102          25.317  
E07                                                                  27077904.457   142295337.270        3054.738          32.571  
E08                                                                  26939193.185   141566424.127        1015.108          32.234    26939194.384                         758.213          25.015  
E13                                                                  26019888.006   136735429.459       -1638.814          30.974    26019895.201                       -1224.076          23.658  
E26                                                                  23851165.382   125338722.985         251.574          23.750    23851173.176                         188.316          24.415  
E31                                                                  25497913.362   133992459.442        1420.335          32.514    25497915.161   100059297.9051       1060.638          25.478  
E33                                                                  25144603.153   132135758.522        2295.046          23.480    25144603.753                        1714.003          19.015  
G08  20569557.392   108093727.206        1716.869          32.152    20569556.492    80719356.084        1282.091          29.192  
G10  21223682.051                        -318.545          27.722    21223695.242    83286340.128        -237.312          37.147  
G21  21753492.970                        2299.034          24.232  
G23  22801296.691                       -2155.418          22.776  
G27  20419183.893   107303539.202        -750.671          35.425  
G32  24650581.757   129539683.700        3377.836          30.091    24650575.762                        2522.328          24.800  
R03  23109927.330   123709251.159       -2476.489          31.937  
R04  20765771.256   111199787.760         919.974          32.187  
R05  21738850.807   116206631.054        4338.193          32.840  
R11  21803622.466                        1626.520          20.579  
R19  21594203.644                       -1973.649          15.802  
> 2022  9 17  6 16 32.9997847  0 24
C13  40880932.919   212877756.300        -503.847          25.647  
C14  24757617.558   128919411.277       -1463.402          28.625  
C27  21721707.775                        1220.932          20.647  
C28  22928785.532   119396212.334       -1270.508          38.014  
C30  24612014.357   128161210.031        3163.961          29.075  
C33  23671732.700                         -53.998          25.203  
C36  25241601.603                         491.411          14.462  
E07                                                                  27077446.674   142292914.079        3053.359          32.237  
E08                                                                  26939119.436   141566040.284        1014.011          31.440    26939123.033                         757.141          23.336  
E13                                                                  26020318.209   136737699.150       -1639.523          30.844    26020324.804                       -1224.379          25.160  
E26                                                                  23851235.833   125339102.682         250.471          22.698    23851247.525    93597409.4471        187.050          24.875  
E31                                                                  25497763.765   133991670.458        1419.152          32.881    25497766.464   100058708.790        1059.694          26.048  
E33                                                                  25144287.772                        2293.848          23.500    25144289.870                        1715.758          19.576  
G08  20569351.434   108092641.483        1715.891          33.139    20569349.636    80718545.344        1281.319          30.460  
G10  21223859.528   111532170.0481       -319.117          25.576    21223875.717    83287048.998        -238.290          37.683  
G21  21753178.788                        2296.472          25.638  
G23  22801827.923                       -2152.115          22.508  
G27  20419446.511   107304921.092        -751.721          35.146  
G32  24650058.020   129536936.831        3377.037          29.286    24650053.223    96732104.9931       2521.772          26.913  
R03  23110505.930   123712370.965       -2477.881          32.296  
R04  20765720.591   111199511.640         918.269          32.309  
R05  21738155.288   116202935.067        4337.012          32.471  
R11  21803417.408                        1631.807          22.044  
R19  21594673.718                       -1975.657          15.558  
> 2022  9 17  6 16 33.9997850  0 23
C13  40881120.889   212878728.477        -503.848          25.786  
C14  24757986.003   128921344.160       -1464.554          28.920  
C27  21721560.277                        1227.047          20.275  
C28  22929119.801   119397951.408       -1270.745          38.127  
C30  24611496.016   128158514.399        3163.962          28.982  
C33  23671835.529                         -54.898          25.374  
C36  25241599.504                         492.641          13.402  
E07                                                                  27076953.515   142290333.519        3053.186          32.216  
E08                                                                  26939014.508   141565499.366        1013.545          31.814    26939017.806                         757.289          22.492  
E13                                                                  26020719.631   136739811.328       -1639.552          30.872    26020730.423                       -1224.156          25.435  
E26                                                                  23851276.605                         250.548          23.067    23851288.297                         187.213          25.400  
E31                                                                  25497582.991   133990724.375        1418.709          33.286    25497585.689   100058002.324        1059.401          25.906  
E33                                                                  25143939.113                        2294.165          23.509    25143942.411                        1714.909          17.876  
G08  20569113.999   108091398.702        1715.408          33.192    20569112.800    80717617.368        1280.912          31.351  
G10  21224012.122                        -319.417          25.158    21224026.212    83287640.742        -238.809          37.318  
G21  21752835.226   114311909.9921       2296.187          25.780  
G23  22802323.480                       -2149.926          21.295  
G27  20419679.450   107306146.059        -752.341          34.573  
G32  24649509.999   129534032.594        3376.863          28.738    24649500.406    96729936.243        2521.685          27.302  
R03  23111059.047   123715330.841       -2478.432          32.699  
R04  20765645.343   111199075.892         917.361          31.825  
R05  21737444.181   116199079.259        4336.576          32.047  
R11  21803193.463                        1626.596          22.394  
> 2022  9 17  6 16 34.9997854  0 23
C13  40881338.838   212879856.723        -503.807          25.814  
C14  24758388.025   128923433.503       -1464.903          29.382  
C27  21721448.754                        1227.724          20.866  
C28  22929483.749   119399846.854       -1271.007          37.845  
C30  24611010.352   128155975.005        3163.833          29.059  
C33  23671968.937   123266163.8751        -53.858          25.573  
C36  25241623.188                         481.647          14.827  
E07                                                                  27076490.935   142287910.759        3052.928          32.171  
E08                                                                  26938943.458   141565116.587        1012.947          32.207    26938948.254                         755.826          22.153  
E13                                                                  26021153.131   136742081.175       -1639.679          30.984    26021161.825   102112632.5171      -1224.488          24.927  
E26                                                                  23851346.157                         249.412          23.200    23851362.645                         186.341          25.247  
E31                                                                  25497432.195   133989936.430        1418.113          33.387    25497435.193   100057413.884        1059.021          26.059  
E33                                                                  25143622.532   132130609.6081       2293.752          23.024    25143621.333                        1713.811          17.219  
G08  20568907.741   108090313.963        1714.906          33.333    20568906.243    80716807.279        1280.669          31.561  
G10  21224189.599   111533912.9991       -320.469          25.366    21224207.287    83288350.606        -239.284          37.254  
G21  21752516.246   114310244.328        2295.832          25.195  
G23  22802856.811                       -2152.385          20.691  
G27  20419943.267   107307529.010        -752.783          34.756  
G32  24648986.861   129531286.111        3376.651          28.679    24648977.568    96727885.277        2521.546          27.597  
R03  23111636.447   123718451.840       -2479.074          32.852  
R04  20765591.380   111198801.728         916.313          31.536  
R05  21736742.966   116195384.226        4336.058          31.890  
R11  21802967.120                        1620.273          22.850  
> 2022  9 17  6 16 35.9997857  0 23
C13  40881525.309   212880828.552        -503.499          25.436  
C14  24758760.367   128925366.824       -1464.992          29.335  
C27  21721302.155                        1229.793          21.201  
C28  22929818.317   119401586.139       -1270.955          37.539  
C30  24610494.409   128153279.263        3164.071          28.504  
C33  23672063.072   123266686.354         -54.150          25.641  
C36  25241599.804                         478.144          13.310  
E07                                                                  27075999.875   142285330.348        3053.037          32.042    27076007.370   106252068.3271       2279.643          27.376  
E08                                                                  26938839.130   141564576.403        1012.810          31.766    26938844.226   105713803.9431        756.252          22.194  
E13                                                                  26021554.553   136744193.198       -1639.397          31.227    26021562.047   102114209.657       -1224.206          23.272  
E26                                                                  23851390.526   125339927.2091        250.320          23.125    23851404.616                         186.670          24.660  
E31                                                                  25497252.619   133988991.094        1417.962          33.809    25497258.016   100056707.864        1058.955          25.326  
E33                                                                  25143278.670                        2293.149          22.880    25143275.672                        1714.824          17.675  
G08  20568673.304   108089071.805        1714.784          33.164    20568672.105    80715879.740        1280.474          30.934  
G10  21224341.894                        -320.320          25.690    21224358.382    83288942.957        -239.416          37.007  
G21  21752170.885                        2295.132          25.464  
G23  22803344.273                       -2153.229          20.773  
G27  20420176.206   107308754.621        -752.985          34.857  
G32  24648434.044   129528381.851        3376.886          28.698    24648425.050    96725716.555        2521.657          27.016  
R03  23112193.162   123721412.629       -2479.346          32.648  
R04  20765499.344   111198367.526         915.814          31.040  
R05  21736021.366   116191529.061        4335.934          32.226  
R11  21802771.355                        1621.262          22.088  
> 2022  9 17  6 16 36.9997861  0 22
C13  40881735.763                        -501.583          25.344  
C14  24759161.789   128927457.438       -1466.175          29.485  
C27  21721190.033                        1229.687          24.528  
C28  22930180.766   119403481.364       -1270.786          35.323  
C30  24610005.748                        3166.392          25.995  
C33  23672198.578   123267365.100         -54.306          29.712  
E07                                                                  27075537.595   142282906.861        3053.655          32.526    27075544.790   106250257.980        2280.927          27.611  
E08                                                                  26938767.479                        1014.302          32.865    26938773.775                         756.344          25.087  
E13                                                                  26021985.954   136746460.828       -1637.461          30.530    26021989.551                       -1221.949          23.191  
E26                                                                  23851469.072                         261.268          23.976    23851473.868                         186.834          22.920  
E31                                                                  25497102.123   133988201.245        1420.017          32.357    25497107.820   100056118.097        1060.347          25.143  
E33                                                                  25142953.695                        2289.347          23.988    25142957.593                        1713.409          20.833  
G08  20568466.147                        1714.157          33.151    20568465.847    80715069.612        1280.708          29.578  
G10  21224524.168                        -321.040          27.382    21224541.556    83289652.025        -238.488          34.719  
G21  21751852.506   114306754.5161       2296.954          23.966  
G23  22803879.703   119835183.6521      -2150.361          27.928  
G27  20420439.724   107310136.890        -752.102          33.067  
G32  24647903.112                        3377.287          33.752    24647902.812                        2519.989          26.842  
R03  23112781.654   123724534.268       -2479.714          32.015  
R04  20765443.283                         915.135          33.140  
R05  21735335.740   116187833.656        4336.430          32.326  
R11  21802609.168                        1623.178          23.639  
> 2022  9 17  6 16 37.9997865  0 21
C13  40881950.115                        -502.711          26.734  
C14  24759566.209                       -1465.179          29.382  
C27  21721062.621                        1227.039          26.452  
C28  22930549.511   119405376.566       -1270.763          35.221  
C30  24609515.587                        3164.340          23.801  
C33  23672331.986   123268044.418         -54.879          32.057  
E07                                                                  27075077.114   142280484.044        3052.985          30.224    27075080.712   106248448.273        2280.288          27.569  
E08                                                                  26938693.131   141563810.9251       1012.920          34.682  
E13                                                                  26022417.056   136748729.666       -1638.670          35.794    26022423.951   102117598.5341      -1223.612          27.303  
E26                                                                  23851542.820                         251.613          25.172    23851540.122                         187.222          24.038  
E31                                                                  25496955.525                        1417.138          30.145    25496958.523   100055529.412        1059.265          23.492  
E33                                                                  25142644.609                        2292.288          24.756    25142638.613    98665018.3551       1713.402          26.485  
G08  20568252.695   108086901.8961       1714.814          37.141    20568257.492                        1280.089          31.286  
G10  21224727.127                        -321.953          33.225  
G21  21751532.028                        2299.146          20.742  
G23  22804410.335                       -2150.180          26.335  
G27                                                                  20420706.839    80135239.3951       -562.016          31.611  
G32  24647379.374   129522887.7411       3377.443          32.006  
R04  20765388.421   111197820.3611        914.893          32.064  
R05  21734642.320                        4336.117          31.908  
R11  21802407.707                        1622.252          26.692  
> 2022  9 17  6 16 38.9997868  0 22
C13  40882133.588   212884053.8811       -502.864          25.432  
C14  24759939.451                       -1466.361          30.121  
C27  21720911.826   113106489.1931       1227.792          28.447  
C28  22930883.180   119407116.024       -1271.128          34.214  
C30  24609001.443                        3164.064          18.890  
C33  23672436.014   123268567.723         -54.976          31.072  
E07                                                                  27074585.754   142277903.566        3053.104          27.573    27074589.652   106246521.452        2279.755          24.920  
E08                                                                  26938589.702   141563271.669        1011.883          31.512    26938604.092   105712829.3461        755.593          27.352  
E13                                                                  26022818.178   136750841.388       -1639.096          35.318    26022825.972   102119175.467       -1223.998          29.015  
E26                                                                  23851582.993                         251.609          23.458  
E31                                                                  25496775.350   133986468.7281       1417.066          29.666    25496777.748   100054824.170        1058.177          25.217  
E33                                                                  25142298.349                        2291.812          25.805    25142291.154    98663658.341        1712.949          26.194  
G08  20568017.658   108085660.528        1713.994          37.470    20568021.855    80713332.7501       1279.903          31.537  
G10  21224870.728   111537403.5311       -322.022          30.653    21224868.329    83290956.0421       -240.447          34.213  
G21  21751195.960                        2292.820          19.383  
G23  22804909.190                       -2152.849          26.855  
G27                                                                  20420939.178    80136155.251        -562.921          34.064  
G32  24646827.157   129519983.456        3376.911          29.856  
R03  23113940.352                       -2485.012          23.825  
R04  20765304.779   111197388.470         913.504          32.018  
R05  21733919.221   116180283.9031       4335.032          31.398  
R11  21802217.939                        1620.756          25.615  
> 2022  9 17  6 16 39.9997872  0 23
C13  40882348.839   212885180.559        -502.239          25.957  
C14  24760340.273   128933576.3281      -1465.846          29.662  
C27  21720795.506   113105886.098        1227.534          28.003  
C28  22931248.927   119409011.163       -1270.699          34.258  
C30  24608515.779                        3163.662          16.404  
C33  23672565.824   123269247.478         -55.315          31.383  
C36  25241708.929   131440105.9801        482.114          25.363  
E07                                                                  27074124.674                        3052.751          25.995    27074130.669   106244711.966        2280.066          23.078  
E08                                                                  26938518.052   141562889.805        1012.032          31.069    26938530.044   105712544.186         755.740          26.994  
E13                                                                  26023252.577   136753110.081       -1638.525          35.027    26023256.175   102120869.534       -1223.487          29.185  
E26                                                                  23851653.144   125341269.3501        250.416          23.948  
E31                                                                  25496627.252   133985681.647        1417.249          30.074    25496629.950   100054236.340        1058.410          25.795  
E33                                                                  25141979.070                        2291.915          25.744    25141975.473    98662415.557        1713.364          25.221  
G08  20567814.398   108084576.472        1714.224          37.555    20567815.298    80712523.245        1280.085          31.464  
G10  21225056.899   111538355.643        -321.944          29.024    21225049.404    83291667.001        -240.378          34.320  
G21  21750877.581                        2291.999          18.897  
G23  22805443.720                       -2151.986          27.548  
G27  20421196.999                        -761.297          20.260    20421202.096    80137188.664        -562.833          33.744  
G32  24646305.818   129517236.290        3377.334          28.993    24646313.912    96717394.9831       2521.950          28.169  
R03  23114523.448                       -2482.279          22.058  
R04  20765261.309   111197117.388         913.232          32.053  
R05  21733234.195   116176589.656        4335.272          31.499  
R11  21802035.365                        1620.420          25.224  
> 2022  9 17  6 16 40.9997875  0 23
C13  40882537.108   212886150.127        -501.239          25.701  
C14  24760711.416   128935509.890       -1465.232          30.346  
C27  21720650.107   113105126.156        1228.271          27.705  
C28  22931581.097   119410749.516       -1270.024          34.372  
C30  24607992.941                        3161.417          14.257  
C33  23672665.655   123269770.919         -55.112          30.832  
C36  25241704.132   131440091.815         482.495          25.591  
E07                                                                  27073636.911   142272899.0621       3054.111          26.549    27073637.811   106242784.164        2280.737          24.494  
E08                                                                  26938414.624   141562349.946        1012.485          30.913    26938428.114   105712140.998         756.123          27.113  
E13                                                                  26023651.601   136755220.385       -1637.677          35.158    26023658.496   102122445.429       -1222.960          29.539  
E26                                                                  23851695.715                         251.391          23.291  
E31                                                                  25496445.878   133984736.613        1417.660          29.949    25496449.775   100053530.599        1058.676          25.995  
E33                                                                  25141635.208   132120182.2461       2295.074          25.405    25141627.713                        1713.592          24.778  
G08  20567578.462   108083334.433        1714.665          37.181    20567578.762    80711595.756        1280.424          31.271  
G10  21225207.694                        -321.460          28.603    21225200.499    83292260.151        -240.215          34.270  
G21  21750535.817                        2296.544          19.183  
G23  22805943.174   119846003.0021      -2151.268          27.412  
G27  20421426.940                        -761.428          17.355    20421435.634    80138104.129        -562.530          34.157  
G32  24645749.103   129514330.857        3378.059          28.510    24645760.195    96715225.319        2522.598          28.447  
R03  23115050.184                       -2477.705          20.969  
R04  20765178.866   111196685.830         913.170          31.700  
R05  21732510.196   116172734.675        4335.749          31.328  
R11  21801829.108   116502364.3981       1620.894          25.046  
> 2022  9 17  6 16 41.9997879  0 22
C13  40882751.460   212887275.466        -500.899          26.234  
C14  24761114.337   128937599.755       -1465.426          30.386  
C27  21720536.785   113104522.304        1228.292          27.653  
C28  22931945.045   119412643.883       -1269.927          33.683  
C33  23672797.863   123270450.596         -55.238          31.159  
C36  25241732.312   131440233.905         482.349          26.951  
E07                                                                  27073179.428   142270475.015        3054.215          25.938    27073177.329                        2280.854          24.921  
E08                                                                  26938341.174   141561967.816        1012.298          28.884    26938353.466   105711855.620         755.958          27.444  
E13                                                                  26024083.302   136757487.922       -1637.370          34.641    26024089.598   102124138.693       -1222.684          30.080  
E26                                                                  23851770.963                         251.234          23.172    23851768.264                         182.757          18.910  
E31                                                                  25496295.682   133983949.214        1417.566          29.840    25496298.680   100052942.717        1058.462          26.393  
E33                                                                  25141318.028   132118516.995        2295.419          24.802    25141310.233    98659811.1081       1714.143          25.247  
G08  20567370.406   108082249.988        1714.613          37.475    20567374.003    80710786.016        1280.319          30.954  
G10  21225382.174   111540102.0161       -322.013          28.089    21225381.274    83292971.121        -240.390          34.473  
G21  21750196.452                        2298.629          19.374  
G23  22806469.310   119848784.563       -2151.393          28.769  
G27                                                                  20421699.751    80139137.262        -562.553          33.881  
G32  24645224.466   129511582.672        3378.354          27.705    24645237.057    96713173.072        2522.828          28.657  
R03  23115656.664                       -2481.404          21.680  
R04  20765126.102   111196415.256         912.724          31.679  
R05  21731814.078   116169040.018        4335.683          31.479  
R11  21801634.842   116501384.833        1620.365          25.177  
> 2022  9 17  6 16 42.9997882  0 23
C13  40882942.728   212888244.925        -501.130          25.964  
C14  24761482.183   128939534.223       -1466.139          30.675  
C27  21720388.088   113103762.918        1227.716          27.494  
C28  22932282.012   119414382.658       -1270.446          33.123  
C30  24606977.844                        3173.677          16.851  
C33  23672899.792   123270975.149         -56.223          30.639  
C36  25241726.916   131440220.729         481.505          27.219  
E07                                                                  27072686.269   142267893.940        3053.701          25.997    27072686.269   106239046.6911       2280.310          24.863  
E08                                                                  26938238.945   141561428.790        1011.652          27.978    26938253.335   105711453.225         755.330          27.677  
E13                                                                  26024485.324   136759598.240       -1637.692          35.034    26024492.219   102125714.653       -1223.024          30.303  
E26                                                                  23851811.435   125342091.3341        250.895          23.863    23851809.636                         188.648          18.387  
E31                                                                  25496116.406   133983005.035        1416.805          29.782    25496119.404   100052237.560        1058.092          26.212  
E33                                                                  25140972.067                        2294.372          25.330    25140964.872                        1713.450          25.016  
G08  20567132.970   108081008.348        1714.266          37.477    20567136.568    80709859.101        1279.850          30.882  
G10  21225535.368   111540897.442        -322.799          28.600    21225532.669    83293565.079        -241.023          34.533  
G21  21749863.982                        2302.467          18.817  
G23  22806967.565   119851409.259       -2152.070          27.952  
G27                                                                  20421933.290    80140053.352        -563.155          33.997  
G32  24644673.148                        3377.580          27.741    24644683.641    96711003.585        2522.422          29.014  
R03  23116217.276                       -2480.496          22.286  
R04  20765044.859   111195985.446         911.423          31.521  
R05  21731093.377   116165185.862        4334.925          31.003  
R11  21801425.287   116500246.240        1619.193          25.132  
> 2022  9 17  6 16 43.9997886  0 23
C13  40883157.679   212889370.678        -501.314          26.416  
C14  24761885.403   128941625.525       -1466.863          31.019  
C27  21720274.467   113103160.252        1227.105          27.243  
C28  22932642.362   119416278.066       -1270.968          32.723  
C30  24606496.977                        3164.103          19.712  
C33  23673028.104   123271656.613         -57.025          30.753  
C36  25241755.696   131440364.553         480.615          26.972  
E07                                                                  27072222.191   142265470.942        3053.166          25.673    27072226.687   106237237.295        2279.976          25.675  
E08                                                                  26938166.096   141561048.308        1010.651          27.085    26938182.584   105711168.906         754.899          27.334  
E13                                                                  26024916.425   136761866.491       -1638.082          35.194    26024923.920   102127408.466       -1223.233          30.213  
E26                                                                  23851883.385   125342471.266         250.236          24.142    23851877.089                         191.589          17.789  
E31                                                                  25495966.210   133982219.201        1416.002          30.096    25495968.908   100051650.899        1057.241          26.622  
E33                                                                  25140656.985   132115030.6601       2294.290          25.197    25140646.493    98657207.7311       1713.260          24.279  
G08  20566927.912   108079925.397        1713.119          37.561    20566930.910    80709050.461        1279.220          30.670  
G10  21225715.543   111541851.329        -323.720          28.880    21225714.044    83294277.395        -241.736          34.718  
G21  21749539.907                        2299.675          18.920  
G23  22807495.799                       -2153.846          27.234  
G27                                                                  20422196.508    80141087.684        -563.752          34.106  
G32  24644151.509   129505930.1841       3377.390          28.272    24644162.002    96708952.055        2522.110          28.843  
R03  23116763.498                       -2482.866          22.644  
R04  20764999.290   111195717.467         910.128          31.722  
R05  21730402.955   116161492.714        4334.173          31.296  
R11  21801240.315                        1617.267          25.003  
> 2022  9 17  6 16 44.9997890  0 23
C13  40883373.529   212890496.535        -501.418          26.245  
C14  24762287.425   128943717.343       -1467.379          31.308  
C27  21720158.447   113102557.841        1226.850          26.598  
C28  22933011.706   119418173.785       -1271.280          32.463  
C30  24606013.711                        3160.905          18.404  
C33  23673160.012   123272338.692         -57.640          30.776  
C36  25241781.478   131440508.969         480.022          26.474  
E07                                                                  27071760.810   142263048.173        3052.937          25.442    27071765.906   106235428.051        2279.825          25.954  
E08                                                                  26938091.747   141560668.206        1010.269          26.303    26938107.336   105710885.129         754.356          27.657  
E13                                                                  26025348.726   136764134.804       -1638.145          35.459    26025354.422   102129102.305       -1223.260          30.191  
E26                                                                  23851958.033   125342851.348         250.086          23.867  
E31                                                                  25495815.714   133981433.859        1415.511          30.016    25495820.811   100051064.299        1057.181          25.843  
E33                                                                  25140339.805                        2294.840          24.384    25140332.010    98655965.054        1713.258          25.172  
G08  20566721.355   108078842.968        1712.597          37.607    20566724.953    80708242.149        1278.892          30.511  
G10  21225897.517   111542805.817        -324.319          28.871    21225896.018    83294990.153        -242.178          34.778  
G21  21749226.024                        2294.794          20.890  
G23  22808029.730   119856975.6871      -2153.211          27.042  
G27  20422444.436                        -756.833          16.037    20422460.625    80142122.388        -564.124          34.283  
G32  24643629.570   129503183.119        3377.233          28.892    24643640.063    96706900.653        2521.981          29.121  
R03  23117368.479                       -2484.650          22.772  
R04  20764954.321   111195450.388         909.230          31.681  
R05  21729709.535   116157800.105        4333.633          31.163  
R11  21801042.153                        1617.707          24.454  
> 2022  9 17  6 16 45.9997893  0 23
C13  40883558.202   212891466.432        -501.568          26.558  
C14  24762657.069   128945653.665       -1467.992          31.204  
C27  21720015.146   113101799.714        1226.456          26.744  
C28  22933340.279   119419913.677       -1271.562          33.156  
C30  24605489.374                        3161.726          18.020  
C33  23673260.443   123272865.389         -58.367          31.193  
C36  25241781.478                         478.859          26.589  
E07                                                                  27071267.951   142260468.074        3052.724          25.779    27071271.549                        2279.075          26.191  
E08                                                                  26937998.212   141560131.074        1009.759          27.555    26938005.107   105710484.046         754.018          27.936  
E13                                                                  26025750.448   136766245.755       -1638.325          35.189    26025756.144   102130678.660       -1223.419          30.020  
E26                                                                  23852002.402   125343074.201         249.773          23.850    23851996.706                         186.887          17.595  
E31                                                                  25495637.937   133980491.560        1414.925          30.030    25495641.535   100050360.734        1056.500          25.871  
E33                                                                  25139987.549                        2293.173          24.701    25139986.050                        1712.653          25.146  
G08  20566486.618   108077603.478        1712.116          37.630    20566489.616    80707316.540        1278.544          30.739  
G10  21226049.811   111543603.455        -325.012          28.803    21226048.013    83295585.844        -242.757          34.968  
G21  21748894.154                        2294.814          20.401  
G23  22808525.586   119859602.062       -2153.749          26.992  
G27                                                                  20422693.563    80143039.825        -564.502          34.304  
G32  24643075.254   129500278.738        3377.008          28.495    24643086.646    96704731.819        2521.769          29.237  
R03  23117936.586                       -2483.846          22.331  
R04  20764869.480   111195023.867         908.133          31.584  
R05  21728987.635   116153947.757        4333.117          31.226  
R11  21800840.692                        1615.260          24.782  
> 2022  9 17  6 16 46.9997897  0 23
C13  40883778.249                        -501.969          26.197  
C14  24763058.791   128947746.915       -1468.811          31.048  
C27  21719898.227   113101198.634        1225.520          26.568  
C28  22933708.424   119421810.372       -1272.256          33.336  
C30  24605003.111                        3161.331          18.820  
C33  23673390.253   123273549.226         -59.398          31.154  
C36  25241809.359   131440644.0391        478.274          25.970  
E07                                                                  27070805.671                        3051.806          25.852    27070810.768   106231692.9321       2279.075          26.626  
E08                                                                  26937919.067   141559752.549        1008.693          29.032    26937932.857   105710201.387         753.239          27.887  
E13                                                                  26026181.849   136768514.800       -1638.877          35.118    26026187.245   102132373.063       -1223.824          29.976  
E26                                                                  23852072.554                         248.028          23.628    23852070.455                         188.767          18.560  
E31                                                                  25495489.240   133979707.740        1413.987          29.961    25495492.538   100049775.411        1055.903          25.940  
E33                                                                  25139672.467   132109882.3191       2293.199          24.859    25139668.869    98653363.1681       1712.449          25.828  
G08  20566279.461   108076522.490        1711.156          37.402    20566283.658    80706509.287        1277.833          30.688  
G10  21226233.284   111544559.786        -326.163          28.881    21226229.387    83296299.947        -243.522          34.676  
G21  21748571.277                        2296.406          20.565  
G23  22809052.921   119862386.895       -2154.665          26.711  
G27  20422954.683                        -755.775          19.945    20422957.681                        -570.041          34.259  
G32  24642555.114   129497532.594        3376.312          28.465    24642565.307    96702681.112        2521.287          29.069  
R03  23118519.382                       -2481.207          22.247  
R04  20764824.811   111194759.361         906.656          31.835  
R05  21728301.110   116150256.620        4332.162          31.243  
R11  21800661.716                        1613.978          24.252  
> 2022  9 17  6 16 47.9997900  0 23
C13  40883958.425                        -501.894          26.129  
C14  24763432.333   128949684.956       -1469.712          30.889  
C27  21719754.327   113100441.938        1225.025          27.177  
C28  22934038.196   119423551.621       -1272.920          34.349  
C30  24604484.770                        3160.648          18.452  
C33  23673492.182   123274077.934         -60.378          31.609  
C36  25241808.160   131440634.866         477.503          25.923  
E07                                                                  27070314.911   142255467.6531       3051.307          25.876    27070322.706   106229767.316        2278.551          25.196  
E08                                                                  26937821.934   141559217.317        1007.858          30.662    26937831.527   105709801.690         752.632          27.233  
E13                                                                  26026583.871   136770626.710       -1639.284          35.435    26026589.267   102133950.152       -1224.154          29.791  
E26                                                                  23852113.026                         248.273          23.320    23852111.827                         186.928          18.249  
E31                                                                  25495309.964   133978767.277        1413.090          30.403    25495313.861   100049073.088        1055.258          24.977  
E33                                                                  25139329.804   132108062.169        2292.776          24.553    25139321.710                        1712.167          25.187  
G08  20566045.923   108075284.782        1710.334          37.839    20566047.721    80705584.992        1277.229          30.340  
G10  21226384.680   111545359.484        -327.072          29.307    21226381.982    83296897.131        -244.250          33.986  
G21  21748230.114                        2290.204          21.465  
G23  22809557.772   119865014.954       -2155.434          25.328  
G27  20423181.626                        -760.389          19.063    20423192.418    80144994.4841       -565.939          33.742  
G32  24642002.597   129494629.418        3375.801          28.383    24642011.590    96700513.116        2520.930          29.653  
R03  23119038.922                       -2487.721          21.952  
R04  20764744.167   111194335.565         905.408          31.349  
R05  21727574.413   116146406.058        4331.331          31.445  
R11  21800445.266                        1609.882          24.109  
> 2022  9 17  6 16 48.9997904  0 23
C13  40884173.376                        -501.301          24.999  
C14  24763834.054   128951779.378       -1469.982          30.500  
C27  21719638.907   113099841.250        1225.127          25.886  
C28  22934404.842   119425448.971       -1272.910          34.867  
C30  24604000.905                        3162.607          20.084  
C33  23673624.091   123274763.036         -60.663          33.270  
C36  25241836.041   131440782.187         477.118          25.470  
E07                                                                  27069856.228   142253046.410        3051.410          26.694    27069860.426   106227959.311        2278.585          27.413  
E08                                                                  26937752.082   141558839.855        1007.631          31.178    26937758.378   105709519.856         752.414          28.231  
E13                                                                  26027015.572   136772895.996       -1639.118          36.294    26027021.268   102135644.721       -1223.988          29.094  
E26                                                                  23852180.479   125344061.2101        248.491          24.451    23852186.175                         183.829          18.175  
E31                                                                  25495161.567   133977984.507        1412.937          28.825    25495164.565   100048488.615        1055.053          25.130  
E33                                                                  25139012.024                        2292.945          25.013  
G08  20565839.965   108074204.823        1710.127          37.107    20565842.663    80704778.571        1277.001          31.356  
G10  21226568.452   111546317.279        -327.627          32.437    21226565.155    83297612.328        -244.616          34.056  
G21  21747908.736                        2289.067          21.500  
G23  22810087.505                       -2156.250          24.623  
G27  20423463.730                        -758.311          19.300    20423456.535    80146031.145        -566.081          34.342  
G32  24641479.159   129491883.520        3376.066          27.623    24641488.752    96698462.770        2520.927          28.739  
R03  23119626.216                       -2486.433          21.729  
R04  20764689.005   111194072.907         904.808          30.640  
R05  21726900.480   116142715.908        4331.176          30.557  
R11  21800259.394   116494078.4571       1612.935          25.568  
> 2022  9 17  6 16 49.9997907  0 22
C13  40884365.842                        -499.816          25.675  
C14  24764206.996                       -1470.879          29.272  
C27  21719489.011                        1224.546          26.223  
C28  22934735.813                       -1270.651          34.029  
C30  24603476.867                        3162.824          22.216  
C33  23673725.721                         -63.054          34.670  
C36  25241833.043                         478.252          25.955  
E07                                                                  27069361.271   142250467.404        3051.632          34.141    27069369.665   106226032.423        2279.823          28.544  
E08                                                                  26937648.354   141558305.105        1007.375          32.435    26937654.650   105709120.336         752.455          28.020  
E13                                                                  26027414.896                       -1642.162          34.227    26027419.692   102137221.161       -1223.505          27.300  
E26                                                                  23852222.150                         247.204          25.093    23852233.243                         183.255          21.156  
E31                                                                  25494975.396                        1410.715          28.860    25494984.689                        1052.457          25.144  
G08  20565599.532   108072967.985        1709.464          34.231    20565607.027    80703854.644        1276.862          30.111  
G10  21226720.747                        -325.470          32.428  
G21  21747549.585                        2289.394          23.119  
G23  22810586.959   119870429.1161      -2155.697          33.425  
G27  20423685.277                        -755.723          30.620    20423689.474                        -563.987          31.505  
G32  24640929.040   129488980.085        3376.061          35.294    24640930.839                        2523.571          27.197  
R03  23120183.530                       -2484.063          27.839  
R04  20764629.046                         902.929          33.593  
R05  21726174.982                        4331.010          29.896  
R11  21800051.039                        1611.298          25.464  
> 2022  9 17  6 16 50.9997911  0 18
C13  40884581.693                        -497.034          22.128  
C14  24764608.418   128955814.2271      -1471.565          30.846  
C27  21719379.287                        1226.974          22.118  
C28  22935098.562   119429087.7791      -1274.054          36.218  
C30  24602996.000   128114215.4411       3163.691          26.135  
E07                                                                  27068903.188   142248047.378        3050.194          33.520    27068910.983   106224225.188        2277.815          29.126  
E08                                                                  26937575.804   141557929.381        1005.892          31.349    26937578.502                         752.792          23.817  
E13                                                                  26027852.593   136777278.1461      -1640.172          32.046  
E26                                                                  23852298.897                         246.971          25.316    23852306.092                         186.467          22.585  
E31                                                                  25494836.892                        1409.322          31.350    25494834.793   100047203.3071       1053.764          24.917  
G08  20565401.069   108071889.704        1708.449          32.711    20565401.669    80703049.327        1275.897          29.470  
G10  21226897.924                        -330.447          28.319  
G21  21747235.102                        2293.445          21.388  
G27  20423949.694   107328598.5801       -759.895          31.457    20423959.287                        -570.764          27.096  
G32  24640413.996   129486235.463        3374.790          32.607  
R03  23120775.320   123767326.9881      -2488.087          32.353  
R05  21725484.560   116135178.2161       4329.417          33.974  
R11  21799839.985                        1608.508          21.371  
> 2022  9 17  6 16 51.9997915  0 19
C13  40884798.443                        -497.013          18.922  
C14  24765008.641   128957910.520       -1471.854          30.769  
