     3.03           OBSERVATION DATA    M: Mixed            RINEX VERSION / TYPE
Geo++ RINEX Logger  Geo++               20220917 100131 UTC PGM / RUN BY / DATE
************************************************************COMMENT
This file was generated by the Geo++ RINEX Logger App       COMMENT
for Android devices (Version 2.1.6). If you encounter       COMMENT
any issues, please send an email to android@geopp.de        COMMENT
Filtering Mode: BEST                                        COMMENT
************************************************************COMMENT
Geo++                                                       MARKER NAME
GEODETIC                                                    MARKER TYPE
Geo++               Geo++                                   OBSERVER / AGENCY
unknown             Xiaomi              MI 8                REC # / TYPE / VERS
unknown             MI 8                                    ANT # / TYPE
  4410324.5681   193655.2031  4588683.7352                  APPROX POSITION XYZ
        0.0000        0.0000        0.0000                  ANTENNA: DELTA H/E/N
G    8 C1C L1C D1C S1C C5Q L5Q D5Q S5Q                      SYS / # / OBS TYPES
R    4 C1C L1C D1C S1C                                      SYS / # / OBS TYPES
E   12 C1B L1B D1B S1B C1C L1C D1C S1C C5Q L5Q D5Q S5Q      SYS / # / OBS TYPES
C    4 C2I L2I D2I S2I                                      SYS / # / OBS TYPES
J    8 C1C L1C D1C S1C C5Q L5Q D5Q S5Q                      SYS / # / OBS TYPES
  2022     9    17    10     1   49.9110004     GPS         TIME OF FIRST OBS
 24 R01  1 R02 -4 R03  5 R04  6 R05  1 R06 -4 R07  5 R08  6 GLONASS SLOT / FRQ #
    R09 -2 R10 -5 R11  0 R12 -1 R13 -2 R14 -7 R15  0 R16 -1 GLONASS SLOT / FRQ #
    R17  4 R18 -3 R19  3 R20  2 R21  4 R22 -3 R23  3 R24  2 GLONASS SLOT / FRQ #
G L1C                                                       SYS / PHASE SHIFT
G L5Q -0.25000                                              SYS / PHASE SHIFT
R L1C                                                       SYS / PHASE SHIFT
E L1B                                                       SYS / PHASE SHIFT
E L1C +0.50000                                              SYS / PHASE SHIFT
E L5Q -0.25000                                              SYS / PHASE SHIFT
C L2I                                                       SYS / PHASE SHIFT
J L1C                                                       SYS / PHASE SHIFT
J L5Q -0.25000                                              SYS / PHASE SHIFT
 C1C    0.000 C1P    0.000 C2C    0.000 C2P    0.000        GLONASS COD/PHS/BIS
                                                            END OF HEADER
> 2022  9 17 10  1 49.9110004  0  0
> 2022  9 17 10  1 50.5330006  0  0
> 2022  9 17 10  1 51.5123505  0  0
> 2022  9 17 10  1 52.4927190  0  0
> 2022  9 17 10  1 53.4983473  0  0
> 2022  9 17 10  1 54.5126936  0  0
> 2022  9 17 10  1 55.5280944  0  0
> 2022  9 17 10  1 56.4951753  0  0
> 2022  9 17 10  1 57.4953415  0  0
> 2022  9 17 10  1 58.4912730  0  0
> 2022  9 17 10  1 59.4912732  0  0
> 2022  9 17 10  2  0.4901895  0  0
> 2022  9 17 10  2  1.4808228  0  0
> 2022  9 17 10  2  2.5066984  0  0
> 2022  9 17 10  2  3.5219809  0  0
> 2022  9 17 10  2  4.5437411  0  0
> 2022  9 17 10  2  5.5148008  0  0
> 2022  9 17 10  2  6.5027480  0  0
> 2022  9 17 10  2  7.5151879  0  0
> 2022  9 17 10  2  8.4940224  0  0
> 2022  9 17 10  2  9.5333402  0  0
> 2022  9 17 10  2 10.5078516  0  0
> 2022  9 17 10  2 11.5183992  0  0
> 2022  9 17 10  2 12.5138021  0  0
> 2022  9 17 10  2 13.4845302  0  0
> 2022  9 17 10  2 14.4830911  0  0
> 2022  9 17 10  2 15.4684073  0  0
> 2022  9 17 10  2 16.4955574  0  0
> 2022  9 17 10  2 17.4747717  0  0
> 2022  9 17 10  2 18.4545189  0  0
> 2022  9 17 10  2 19.4607543  0  0
> 2022  9 17 10  2 20.4833056  0  0
> 2022  9 17 10  2 21.5083550  0  0
> 2022  9 17 10  2 22.4987542  0  0
> 2022  9 17 10  2 23.5022123  0  0
> 2022  9 17 10  2 24.4985627  0  0
> 2022  9 17 10  2 25.4386571  0  0
> 2022  9 17 10  2 26.4695038  0  0
> 2022  9 17 10  2 27.4286265  0  0
> 2022  9 17 10  2 28.4730837  0  0
> 2022  9 17 10  2 29.4773934  0  0
> 2022  9 17 10  2 30.5147083  0  0
> 2022  9 17 10  2 31.5105162  0  0
> 2022  9 17 10  2 32.5105164  0  0
> 2022  9 17 10  2 33.4699367  0  0
> 2022  9 17 10  2 34.4699369  0  0
> 2022  9 17 10  2 35.4699371  0  0
> 2022  9 17 10  2 36.4372031  0  0
> 2022  9 17 10  2 37.4394514  0  0
> 2022  9 17 10  2 38.4588470  0  0
> 2022  9 17 10  2 39.4588472  0  0
> 2022  9 17 10  2 40.4697027  0  0
> 2022  9 17 10  2 41.4634886  0  0
> 2022  9 17 10  2 42.4634888  0  0
> 2022  9 17 10  2 43.4830059  0  0
> 2022  9 17 10  3 27.5056388  0  0
> 2022  9 17 10  3 28.5021672  0  0
> 2022  9 17 10  3 29.5099084  0  0
> 2022  9 17 10  3 30.5002078  0  0
> 2022  9 17 10  3 31.5034624  0  7
G01  20707714.647   108819775.3911      -1103.363          30.914  
G17  21568084.226   113341047.9961       1295.024          27.811  
G19  23135647.425   121578648.3591       3157.289          35.214  
G21  22557702.428   118541526.9101      -1763.538          34.570  
G22  23532048.902   123661751.7111      -2069.490          30.204  
G31  24350816.281   127964404.1721       1946.487          38.107  
G32  25696666.768                       -3039.774          23.276  
> 2022  9 17 10  3 32.5024627  0  7
G01  20408221.682   107245929.969       -1101.950          31.153    20408223.481    80086252.3341       -822.853          29.323  
G17  21268136.176   111764804.293        1296.327          29.951  
G19  22835344.120   120000542.387        3158.597          35.885  
G21  22258336.274   116968341.941       -1762.406          34.868  
G22  23232738.210   122088872.320       -2067.981          31.224  
G31  24050744.716   126387509.465        1947.332          37.875  
G32  25397537.151                       -3039.305          23.560  
> 2022  9 17 10  3 33.5024629  0 11
E07                                                                  27435312.229   144173539.8321      -2319.380          33.018  
E10                                                                  25905906.614                        2688.964          25.604  
E26                                                                  27777327.456                       -2286.111          30.452  
E33                                                                  23870774.207                        -795.371          27.770  
G01  20408489.996   107247346.270       -1101.217          30.993    20408493.294    80087310.027        -822.405          28.836  
G17  21267949.405   111763822.426        1296.957          29.643  
G19  22834803.594   119997698.121        3159.352          35.321  
G21  22258734.099   116970418.648       -1761.620          34.772  
G22  23233189.697   122091254.668       -2067.264          30.783  
G31  24050435.330   126385876.609        1947.940          38.189  
G32  25398182.004                       -3037.521          22.778  
> 2022  9 17 10  3 34.0004630  0 11
E07                                                                  27435561.956                       -2318.409          33.168  
E10                                                                  25905691.363                        2702.219          25.232    25905697.359                        2016.498          17.030  
E26                                                                  27777576.284                       -2284.010          30.657  
E33                                                                  23870877.635                        -792.592          27.732  
G01  20408626.102                       -1100.561          31.417    20408627.301                        -821.208          28.254  
G17  21267857.369                        1296.739          29.669  
G19  22834530.783                        3159.479          35.900  
G21  22258929.864                       -1761.482          34.570  
G22  23233415.441                       -2066.496          30.500  
G31  24050279.138                        1947.529          37.965  
G32  25398502.183                       -3038.270          21.549    25398506.380                       -2252.574          19.272  
> 2022  9 17 10  3 35.0004632  0 11
E07                                                                  27436064.108   144177484.9341      -2317.817          32.806    27436077.599                       -1736.929          19.658  
E10                                                                  25905232.681                        2704.916          23.479    25905245.871                        2013.235          27.146  
E26                                                                  27778073.040   145974737.5661      -2286.152          29.840  
E33                                                                  23871087.190   125443425.7231       -792.538          28.516  
G01  20408898.613   107249467.2891      -1100.257          30.984    20408896.515    80088893.9001       -821.659          27.038  
G17  21267669.998   111762351.3161       1297.728          27.844  
G19  22833991.157   119993436.7851       3160.342          34.146  
G21  22259319.594   116973528.3911      -1760.211          34.358  
G22  23233864.830   122094823.0121      -2066.549          28.599  
G31  24049966.455   126383430.0471       1948.949          38.062  
G32  25399137.443                       -3035.364          22.461    25399151.233                       -2265.984          20.239  
> 2022  9 17 10  3 36.0004635  0 12
E07                                                                  27436587.246                       -2314.925          29.960    27436607.032                       -1727.695          21.909  
E10                                                                  25904817.768   136130624.1911       2702.261          25.360    25904823.164   101656095.2421       2007.496          27.728  
E26                                                                  27778598.277                       -2283.787          30.187    27778609.968                       -1707.219          35.130  
E33                                                                  23871330.921                        -790.121          27.843    23871342.314    93676275.0201       -590.614          23.306  
G01  20409193.609   107251038.801       -1098.883          30.966    20409194.808    80090067.434        -820.598          28.337  
G03                                                                  20238612.000    79420660.7321        224.627          30.222  
G17  21267513.807   111761524.992        1298.950          28.460  
G19  22833476.413   119990747.777        3161.631          34.888  
G21  22259745.299   116975759.719       -1758.706          35.334  
G22  23234348.395   122097360.363       -2064.725          28.959  
G31  24049686.748   126381952.496        1950.176          37.742  
G32  25399805.381                       -3037.383          21.950    25399814.674                       -2265.621          21.757  
> 2022  9 17 10  3 37.0004637  0 12
E07                                                                  27437089.698   144182904.3091      -2315.454          31.830    27437105.887   107669108.6991      -1729.163          21.802  
E10                                                                  25904358.486   136128236.180        2703.097          26.353    25904367.779                        2019.448          27.657  
E26                                                                  27779095.033   145980092.8951      -2283.427          30.502    27779104.326                       -1703.070          35.313  
E33                                                                  23871552.768   125445794.7891       -790.390          27.429    23871549.770    93677100.482        -590.174          23.471  
G01  20409458.626   107252452.301       -1098.415          30.146    20409463.123    80091122.949        -820.228          29.625  
G03                                                                  20238614.699    79420671.049         224.971          31.146  
G17  21267326.436   111760540.852        1299.226          28.507  
G19  22832937.986   119987900.820        3162.046          34.956  
G21  22260139.826   116977832.902       -1758.095          34.571  
G22  23234804.380   122099739.191       -2063.741          28.137  
G31  24049374.664   126380316.969        1950.611          37.541  
G32  25400449.934                       -3033.638          21.903  
> 2022  9 17 10  3 38.0004639  0 12
E07                                                                  27437591.251   144185534.715       -2315.323          32.740    27437603.243   107671073.121       -1729.131          20.639  
E10                                                                  25903902.801                        2703.691          28.611    25903915.692   101652528.5211       2018.517          25.751  
E26                                                                  27779590.290   145982691.168       -2283.192          30.076    27779599.583   109013123.6021      -1705.017          34.692  
E33                                                                  23871758.426   125446900.191        -790.323          26.520    23871763.222                        -589.628          23.259  
G01  20409732.336   107253865.973       -1098.591          28.227    20409735.034    80092178.713        -820.472          27.610  
G03                                                                  20238617.996    79420681.443         224.897          31.238  
G17  21267140.565   111759556.945        1298.989          29.385  
G19  22832396.561   119985053.867        3162.035          37.210  
G21  22260536.751   116979905.996       -1758.014          34.841  
G22  23235253.769                       -2063.428          25.338  
G31  24049064.679   126378681.676        1950.376          36.243  
G32  25401074.402   133483569.0001      -3034.077          24.201    25401092.390                       -2264.837          22.841  
> 2022  9 17 10  3 39.0004641  0 12
E07                                                                  27438099.099   144188164.602       -2314.800          32.796    27438105.395   107673036.938       -1728.528          25.272  
E10                                                                  25903439.922   136123459.0471       2703.980          26.752    25903456.710   101650744.561        2019.252          27.893  
E26                                                                  27780084.048   145985288.914       -2282.660          29.485    27780092.142   109015063.459       -1704.568          33.890  
E33                                                                  23871968.280                        -790.363          26.859    23871973.077    93678751.0801       -589.793          24.115  
G01  20410000.051   107255279.348       -1098.291          26.891    20410000.651    80093234.023        -820.022          28.222  
G03                                                                  20238621.894    79420691.656         225.077          31.250  
G17  21266956.193   111758572.793        1299.235          27.717  
G19  22831855.435   119982206.813        3162.140          35.190  
G21  22260929.779   116981978.637       -1757.555          34.255  
G22  23235706.155                       -2062.399          22.949  
G31  24048753.195   126377046.141        1950.620          37.364  
G32  25401716.857                       -3035.214          23.437    25401730.348    99681821.5201      -2265.307          22.740  
> 2022  9 17 10  3 40.0004643  0 14
C06  39032595.197   203252966.1021         52.829          30.658  
C27  25752445.853   134099743.7891      -3069.669          34.357  
E07                                                                  27438602.151   144190794.688       -2315.005          32.912    27438606.048   107675001.000       -1728.771          25.546  
E10                                                                  25902993.231   136121070.367        2703.761          28.967    25903003.124   101648960.832        2019.018          28.377  
E26                                                                  27780579.605   145987886.859       -2282.864          30.333    27780586.800   109017003.445       -1704.696          34.780  
E33                                                                  23872179.634   125449110.6601       -790.270          28.405    23872182.332    93679576.574        -590.203          24.523  
G01  20410269.564                       -1099.471          28.666    20410268.665    80094289.814        -820.499          29.172  
G03                                                                  20238623.992    79420702.244         224.703          31.620  
G17  21266764.026   111757589.395        1298.484          28.313  
G19  22831313.411   119979360.227        3161.667          36.244  
G21  22261325.505   116984051.621       -1757.902          32.515  
G22  23236159.442                       -2063.892          22.535  
G31  24048441.710   126375411.133        1950.091          37.873  
G32  25402356.015                       -3035.756          22.991    25402364.709    99684322.510       -2265.701          21.396  
> 2022  9 17 10  3 41.0004645  0 14
C06  39032643.163   203253226.574          51.746          30.586  
C27  25753093.404   134103126.125       -3070.115          34.035  
E07                                                                  27439099.207   144193425.371       -2315.598          32.657    27439108.500   107676965.500       -1729.210          26.265  
E10                                                                  25902541.743   136118682.133        2703.323          29.379    25902547.440   101647177.385        2018.738          29.451  
E26                                                                  27781071.564   145990485.301       -2283.356          30.391    27781081.458   109018943.816       -1705.082          34.492  
E33                                                                  23872389.788   125450216.719        -790.971          28.074    23872393.086                        -590.745          26.709  
G01  20410539.078   107258107.9611      -1099.676          28.576    20410537.279    80095346.307        -821.203          31.233  
G03                                                                  20238627.889    79420713.420         224.113          31.858  
G17  21266576.056   111756607.004        1297.476          28.988  
G19  22830771.386   119976514.477        3160.835          36.275  
G21  22261725.728   116986125.203       -1758.496          33.095  
G22  23236603.434                       -2069.086          19.803  
G31  24048131.425   126373777.129        1949.090          37.242  
G32  25402996.671                       -3037.752          22.052    25403004.166    99686823.721       -2265.922          22.137  
> 2022  9 17 10  3 42.0004647  0 14
C06  39032693.229   203253486.859          51.933          30.668  
C27  25753744.554   134106508.418       -3070.075          34.050  
E07                                                                  27439599.261   144196055.938       -2315.484          32.482    27439608.554   107678929.766       -1728.976          26.765  
E10                                                                  25902086.059   136116293.801        2703.414          28.984    25902092.055   101645393.771        2018.905          29.599  
E26                                                                  27781567.121   145993083.570       -2283.189          30.008    27781576.415   109020884.084       -1704.975          34.566  
E33                                                                  23872601.742   125451322.797        -790.996          28.637    23872602.641    93681228.5761       -590.724          26.531  
G01  20410807.992   107259522.867       -1099.823          28.572    20410808.291    80096402.842        -821.243          31.095  
G03                                                                  20238629.988    79420724.750         223.961          31.952  
G17  21266391.983   111755624.906        1297.181          28.633  
G19  22830232.359   119973668.984        3160.575          35.718  
G21  22262114.859   116988198.863       -1758.579          33.993  
G22  23237057.320                       -2064.887          18.523  
G31  24047820.240   126372143.313        1948.898          37.114  
G32  25403628.634                       -3037.686          21.285    25403643.024                       -2265.893          21.738  
> 2022  9 17 10  3 43.0004649  0 15
C06  39032742.994   203253748.434          50.650          30.754  
C27  25754394.204   134109891.672       -3071.032          33.892  
E07                                                                  27440100.214   144198687.695       -2316.671          32.502    27440108.608                       -1730.510          27.422  
E10                                                                  25901633.073   136113906.504        2702.381          28.762    25901639.068   101643611.127        2017.933          29.604  
E26                                                                  27782060.580   145995683.070       -2284.413          30.231    27782069.873   109022825.223       -1705.850          34.278  
E33                                                                  23872813.095   125452430.270        -792.386          28.329    23872814.894    93682055.494        -591.629          25.590  
G01  20411071.209   107260939.230       -1101.280          28.303    20411076.306    80097460.570        -822.439          30.723  
G03  20238632.986   106354734.2731        298.918          28.185    20238632.386    79420737.109         222.930          32.089  
G09  24921551.869                        4214.397          22.229  
G17  21266207.011   111754644.398        1295.592          28.236  
G19  22829688.236   119970824.965        3159.107          36.194  
G21  22262508.786   116990273.828       -1759.879          33.771  
G22  23237509.407                       -2065.959          19.923  
G31  24047510.555   126370510.977        1947.422          37.132  
G32  25404271.988                       -3039.456          21.529    25404277.984                       -2266.361          22.616  
> 2022  9 17 10  3 44.0004651  0 15
C06  39032795.158   203254010.641          50.013          30.828  
C27  25755044.154   134113275.617       -3071.725          33.310  
E07                                                                  27440605.664   144201320.098       -2317.321          32.557    27440611.660   107682860.8261      -1730.457          27.174  
E10                                                                  25901177.088   136111519.816        2701.771          28.871    25901184.883   101641828.949        2017.468          29.467  
E26                                                                  27782555.537   145998283.117       -2284.965          30.698    27782564.231   109024766.807       -1706.293          34.246  
E33                                                                  23873023.849   125453538.434        -793.085          28.069    23873025.648    93682883.111        -592.327          25.268  
G01  20411337.725   107262356.547       -1102.234          28.183    20411346.419    80098518.959        -823.098          31.148  
G03  20238635.384   106354751.766         297.591          28.347    20238637.483    79420750.158         222.242          31.988  
G09  24920801.788                        4212.877          22.471  
G17  21266017.842   111753665.027        1294.452          28.786  
G19  22829148.609   119967981.840        3158.205          35.895  
G21  22262902.114   116992349.500       -1760.587          33.276  
G22  23237960.295                       -2069.411          17.817  
G31  24047200.270   126368879.695        1946.364          37.113  
G32  25404904.551                       -3041.245          20.853    25404917.142                       -2267.267          22.495  
> 2022  9 17 10  3 45.0004653  0 15
C06  39032847.022   203254272.688          50.172          30.497  
C27  25755690.806   134116659.313       -3071.477          32.882  
E07                                                                  27441103.619   144203952.359       -2317.175          32.298    27441112.913   107684826.484       -1730.371          26.930  
E10                                                                  25900722.303   136109132.973        2701.928          28.825    25900731.297   101640046.500        2017.739          29.566  
E26                                                                  27783051.394   146000883.027       -2284.824          30.861    27783058.889   109026708.332       -1706.237          34.155  
E33                                                                  23873236.103   125454646.648        -793.128          28.428    23873236.103    93683710.680        -592.278          25.867  
G01  20411614.134   107263774.070       -1102.438          28.061    20411617.731    80099577.461        -823.212          31.054  
G03  20238643.179   106354769.457         297.395          28.044    20238639.881    79420763.416         222.031          32.028  
G09  24920062.800                        4211.817          21.622  
G17  21265830.172   111752685.941        1294.173          28.414  
G19  22828609.582   119965138.980        3157.945          35.965  
G21  22263300.838   116994425.109       -1760.524          32.853  
G22  23238417.179                       -2069.140          17.219  
G31  24046888.785   126367248.656        1946.125          37.463  
G32  25405544.008                       -3040.034          20.523    25405555.700    99696831.9411      -2267.185          21.797  
> 2022  9 17 10  3 46.0004655  0 16
C06  39032893.190   203254534.957          49.947          30.243  
C09  39139056.295   203807337.9341        639.076          26.056  
C27  25756343.155   134120043.191       -3071.661          32.907  
E07                                                                  27441604.273   144206584.902       -2317.463          32.376    27441611.767   107686792.369       -1730.594          27.119  
E10                                                                  25900266.619   136106746.211        2701.845          28.608    25900277.111   101638264.184        2017.608          29.903  
E26                                                                  27783546.051   146003483.098       -2284.987          31.006    27783554.445   109028649.922       -1706.298          34.114  
E33                                                                  23873445.657   125455755.211        -793.481          28.308    23873446.257    93684538.533        -592.564          25.729  
G01  20411881.249   107265192.035       -1102.881          28.120    20411885.746    80100636.367        -823.616          31.133  
G03  20238646.177                         296.288          27.493    20238642.879    79420777.021         221.686          31.874  
G09  24919325.610                        4210.964          22.044  
G17  21265645.500   111751707.445        1293.579          28.574  
G19  22828064.860   119962296.586        3157.474          36.080  
G21  22263692.966   116996501.059       -1760.868          32.748  
G22  23238854.276                       -2061.773          17.502  
G31  24046579.999   126365618.148        1945.590          37.707  
G32  25406187.362                       -3034.137          20.876    25406194.557    99699334.510       -2267.277          22.532  
> 2022  9 17 10  3 47.0004658  0 15
C06  39032975.034   203254954.629          48.661          29.980  
C09  39139019.421                         636.511          25.690  
C27  25757021.885   134123584.426       -3072.900          33.028  
E07                                                                  27442135.505   144209376.262       -2318.730          31.894    27442142.400   107688876.793       -1731.488          27.840  
E10                                                                  25899840.314   136104518.223        2700.617          28.341    25899853.205   101636600.422        2016.696          29.982  
E26                                                                  27784071.288   146006241.961       -2286.236          31.093    27784079.382   109030710.131       -1707.274          33.916  
E33                                                                  23873687.290   125457022.785        -794.944          28.310    23873687.290    93685484.969        -593.498          26.622  
G01  20412183.439   107266769.168       -1104.505          28.845    20412185.838    80101814.109        -824.807          31.165  
G03  20238680.653   106354965.4301        295.327          27.436    20238676.456    79420909.414         220.542          31.933  
G09  24918613.903                        4215.692          22.013  
G17  21265486.610   111750888.227        1291.845          28.539  
G19  22827558.810   119959613.332        3155.884          35.868  
G21  22264118.072   116998735.941       -1762.254          33.490  
G31  24046301.492   126364146.809        1943.967          37.759  
G32  25406843.009                       -3031.320          20.825    25406860.397                       -2268.727          22.458  
> 2022  9 17 10  3 48.0004660  0 16
C06  39033024.499   203255218.563          48.286          30.125  
C09  39138958.263   203806844.7191        637.023          25.440  
C27  25757673.933   134126969.766       -3073.125          33.174  
E07                                                                  27442636.758   144212010.430       -2319.086          31.830    27442645.752   107690843.840       -1731.757          28.222  
E10                                                                  25899387.027   136102132.953        2700.350          28.087    25899398.420   101634819.268        2016.444          30.125  
E26                                                                  27784566.545   146008843.582       -2286.538          31.395    27784574.639   109032652.877       -1707.457          34.079  
E33                                                                  23873898.344   125458133.219        -795.349          28.324    23873898.044    93686314.246        -593.989          26.811  
G01  20412456.550   107268189.375       -1105.122          28.739    20412457.450    80102874.572        -825.174          31.098  
G03  20238675.856   106354985.828         294.682          26.959    20238680.953    79420924.604         220.101          32.324  
G09  24917873.715                        4214.991          21.966  
G17  21265300.439   111749912.270        1291.040          28.395  
G19  22827015.286   119956773.211        3155.202          35.885  
G21  22264518.295   117000813.715       -1762.693          33.696  
G22  23239794.425                       -2073.389          16.777  
G31  24045990.008   126362518.656        1943.237          37.835  
G32  25407478.569                       -3034.331          20.368    25407498.655                       -2268.042          22.138  
> 2022  9 17 10  3 49.0004662  0 15
C06  39033074.265   203255481.656          49.123          30.112  
C09  39138894.707   203806519.223         637.715          25.736  
C27  25758321.785   134130354.262       -3072.275          33.289  
E07                                                                  27443138.311   144214643.789       -2318.275          32.209    27443147.604   107692810.344       -1731.214          27.404  
E10                                                                  25898934.041   136099746.816        2701.223          28.655    25898945.433   101633037.395        2017.164          29.629  
E26                                                                  27785062.701   146011444.359       -2285.694          31.987    27785068.697   109034595.016       -1706.848          33.761  
E33                                                                  23874112.995   125459242.906        -794.602          28.376    23874111.197    93687142.939        -593.402          26.810  
G01  20412729.062   107269609.027       -1104.566          29.553    20412725.764    80103934.742        -824.879          31.203  
G03  20238679.454   106355005.070         295.844          26.927    20238684.550    79420939.406         220.488          32.401  
G09  24917137.724                        4212.648          22.178  
G17  21265119.064   111748935.836        1291.522          28.424  
G19  22826475.960   119953932.547        3155.753          35.927  
G21  22264908.624   117002890.867       -1762.065          32.803  
G31  24045682.121   126360889.996        1943.743          37.874  
G32  25408112.929                       -3038.928          20.515    25408137.812                       -2268.500          22.134  
> 2022  9 17 10  3 50.0004664  0 18
C06  39033126.729   203255745.633          48.246          30.646  
C09  39138834.149   203806194.555         636.891          25.530  
C27  25758973.534   134133739.488       -3073.006          33.526  
E07                                                                  27443639.863   144217277.973       -2319.101          32.289    27443645.859   107694777.404       -1731.771          27.512  
E10                                                                  25898480.155   136097361.516        2700.382          28.513    25898490.048   101631256.045        2016.639          29.739  
E26                                                                  27785557.359   146014045.910       -2286.467          31.973    27785564.854   109036537.748       -1707.443          33.660  
E33                                                                  23874323.150   125460353.781        -795.793          28.210    23874321.651    93687972.461        -594.233          26.413  
G01  20412997.676   107271029.820       -1105.715          30.092    20412997.976    80104995.738        -825.707          30.795  
G03  20238681.253   106355026.102         294.051          27.008    20238689.347    79420954.979         219.716          32.256  
G09  24916397.837                        4207.386          21.963  
G17  21264925.698   111747960.711        1290.204          28.372  
G19  22825935.734   119951093.016        3154.611          35.738  
G21  22265300.753   117004968.859       -1762.913          32.995  
G22  23240693.802                       -2061.124          14.365  
G31  24045371.536   126359262.555        1942.524          37.912  
G32  25408756.884                       -3033.400          20.673    25408774.571                       -2268.912          21.639  
R07  19717533.735   105549502.4451       2249.625          26.569  
R21  19981965.073                       -1878.732          25.510  
> 2022  9 17 10  3 51.0004666  0 18
C06  39033177.394   203256010.547          47.307          30.475  
C09  39138772.392   203805870.352         636.422          25.233  
C27  25759625.882   134137125.766       -3074.057          33.599  
E07                                                                  27444140.517   144219913.250       -2320.192          32.228    27444149.810   107696745.289       -1732.593          27.670  
E10                                                                  25898027.169   136094977.059        2699.546          28.251    25898037.062   101629475.777        2015.557          29.577  
E26                                                                  27786053.216   146016648.500       -2287.506          31.883    27786060.111   109038481.232       -1708.193          33.738  
E33                                                                  23874534.504   125461465.703        -796.835          28.521    23874532.705    93688802.801        -595.050          25.827  
G01  20413271.686   107272451.930       -1107.022          30.131    20413268.089    80106057.668        -826.639          30.800  
G03  20238682.452   106355048.262         292.926          27.268    20238694.144    79420971.658         218.612          32.245  
G09  24915653.452                        4208.363          21.286  
G17  21264744.624   111746987.047        1288.751          28.326  
G19  22825396.707   119948254.863        3153.237          35.714  
G21  22265702.775   117007047.977       -1764.031          33.137  
G22  23241128.801                       -2064.131          15.941  
G31  24045061.250   126357636.473        1941.171          37.840  
G32  25409403.236                       -3035.424          20.026    25409410.731    99711971.2441      -2269.296          22.336  
R07  19717189.574   105547575.320        2248.090          25.808  
R21  19982392.278   106929733.1021      -1879.944          26.321  
> 2022  9 17 10  3 52.0004668  0 19
C06  39033228.358   203256276.480          46.283          30.618  
C09  39138710.335   203805547.691         634.881          25.031  
C27  25760271.035   134140512.840       -3074.857          33.787  
C32  22158127.947   115383187.0701       -844.355          27.444  
E07                                                                  27444641.470   144222549.418       -2321.085          31.931    27444649.564   107698713.857       -1733.279          27.711  
E10                                                                  25897574.482   136092593.504        2698.634          28.085    25897583.476   101627695.582        2015.485          29.726  
E26                                                                  27786548.773   146019251.965       -2288.380          32.130    27786555.068   109040425.377       -1708.855          33.896  
E33                                                                  23874744.059   125462578.625        -797.842          28.568    23874745.558    93689633.891        -595.799          25.928  
G01  20413544.497   107273875.258       -1108.245          30.045    20413538.202    80107120.584        -827.627          31.281  
G03  20238694.443   106355071.727         291.618          27.046    20238697.441    79420989.170         217.778          32.195  
G09  24914911.166                        4209.132          21.473  
G17  21264554.855                        1287.256          28.169  
G19  22824855.881   119945417.910        3152.037          35.771  
G21  22266094.603   117009128.188       -1765.128          32.656  
G22  23241630.054                       -2068.311          13.755  
G31  24044751.565   126356011.668        1939.886          37.828  
G32  25410031.601                       -3035.826          20.787    25410048.989                       -2269.289          22.512  
R07  19716832.821                        2244.975          25.168  
R21  19982792.201   106931935.262       -1881.308          26.308  
> 2022  9 17 10  3 53.0004670  0 18
C06  39033281.122   203256542.504          46.198          30.768  
C09  39138645.579                         634.219          25.631  
C27  25760922.484   134143900.016       -3074.954          33.755  
C32  22158349.194   115384344.457        -845.167          27.596  
E07                                                                  27445142.723   144225185.773       -2321.267          32.004    27445151.417   107700682.533       -1733.386          27.703  
E10                                                                  25897119.098   136090210.043        2698.548          27.959    25897129.890   101625915.746        2015.127          29.847  
E26                                                                  27787044.030   146021855.516       -2288.468          32.337    27787051.225   109042369.641       -1708.974          33.996  
E33                                                                  23874956.611   125463691.945        -798.234          28.372    23874956.012                        -596.170          26.054  
G01  20413811.912   107275299.000       -1108.658          30.538    20413810.113    80108183.797        -827.922          31.114  
G03  20238700.739   106355095.633         291.180          27.726    20238701.938    79421006.984         217.477          32.194  
G09  24914173.676                        4207.782          21.017  
G17  21264374.380   111745042.9611       1286.770          28.523  
G19  22824319.852   119942581.453        3151.543          35.852  
G21  22266492.728   117011208.703       -1765.428          32.555  
G31  24044441.879   126354387.367        1939.387          37.862  
G32  25410672.857                       -3042.248          21.716    25410687.247                       -2270.286          22.156  
R07  19716454.183                        2245.646          24.866  
R21  19983218.206   106934138.188       -1882.076          27.711  
> 2022  9 17 10  3 54.0004672  0 18
C06  39033329.388   203256809.715          45.012          30.421  
C09  39138588.619   203804904.1481        633.669          24.674  
C27  25761576.931   134147288.164       -3075.928          34.355  
C32  22158571.340                        -846.466          27.441  
E07                                                                  27445648.173   144227823.184       -2322.328          32.158    27445653.569   107702652.072       -1734.249          27.854  
E10                                                                  25896666.411   136087827.629        2697.498          27.983    25896677.803   101624136.658        2014.377          29.887  
E26                                                                  27787537.488   146024460.176       -2289.576          32.343    27787546.182   109044314.635       -1709.703          33.919  
E33                                                                  23875170.663   125464806.406        -799.379          28.100    23875168.265                        -597.335          25.536  
G01  20414082.625   107276724.188       -1110.105          30.565    20414079.927    80109248.057        -828.969          30.447  
G03  20238704.636   106355120.902         289.814          27.725    20238706.435    79421025.848         216.426          32.249  
G09  24913434.388                        4205.378          20.601  
G17  21264188.808                        1284.463          28.304  
G19  22823774.530   119939746.391        3150.144          35.869  
G21  22266884.856   117013290.398       -1766.614          33.047  
G31  24044134.592   126352764.508        1937.938          37.859  
G32  25411318.310                       -3041.524          21.524    25411330.602    99719488.1931      -2270.996          21.407  
R07  19716103.126                        2244.845          24.593  
R21  19983621.727   106936342.648       -1883.613          27.160  
> 2022  9 17 10  3 55.0004674  0 18
C06  39033382.452   203257076.992          44.939          30.649  
C09  39138523.264   203804582.816         633.553          24.649  
C27  25762226.582   134150676.461       -3076.078          34.332  
C32  22158790.788   115386662.2501       -846.914          27.848  
E07                                                                  27446147.927   144230460.809       -2322.539          31.991    27446155.722   107704621.715       -1734.350          27.592  
E10                                                                  25896215.223   136085445.305        2697.411          27.829    25896222.718   101622357.600        2014.349          29.817  
E26                                                                  27788035.443   146027064.926       -2289.666          32.080    27788042.938   109046259.727       -1709.802          34.110  
E33                                                                  23875384.415   125465921.242        -799.748          28.231    23875380.518    93692130.0181       -597.189          25.351  
G01  20414355.436   107278149.785       -1110.509          30.740    20414352.438    80110312.641        -829.294          30.585  
G03  20238709.733   106355146.547         289.438          27.927    20238712.731    79421045.033         216.105          32.489  
G09  24912688.205                        4208.475          20.416  
G17  21264002.637   111743103.1291       1284.762          28.038  
G19  22823239.400   119936911.730        3149.745          35.766  
G21  22267285.079   117015372.227       -1766.742          33.274  
G31  24043827.305   126351142.117        1937.479          37.817  
G32  25411960.166                       -3039.309          22.345    25411965.862    99721994.578       -2271.093          22.371  
R07  19715734.981   105539878.6211       2243.636          25.434  
R21  19984024.048   106938547.863       -1884.364          27.411  
> 2022  9 17 10  3 56.0004676  0 18
C06  39033432.517   203257344.617          44.593          30.600  
C09  39138458.209   203804261.828         633.205          24.331  
C27  25762878.031   134154064.934       -3076.254          34.330  
C32  22159016.232   115387821.840        -847.374          27.503  
E07                                                                  27446649.480   144233098.707       -2322.817          31.912    27446657.275   107706591.533       -1734.530          28.096  
E10                                                                  25895758.939   136083063.141        2697.246          27.885    25895769.432   101620578.803        2014.087          29.620  
E26                                                                  27788530.401   146029669.914       -2289.905          31.723    27788538.495   109048205.037       -1710.020          34.612  
E33                                                                  23875594.870   125467036.469        -800.146          28.289    23875592.171    93692962.785        -597.479          25.574  
G01  20414627.048   107279575.957       -1111.093          30.477    20414624.050    80111377.580        -829.650          30.860  
G03  20238714.829   106355172.770         288.860          27.760    20238716.628    79421064.643         215.679          32.462  
G09  24911947.118                        4207.119          19.066  
G17  21263820.064                        1284.130          28.022  
G19  22822697.375   119934077.766        3149.050          35.632  
G21  22267684.403   117017454.559       -1767.251          33.761  
G31  24043515.521   126349520.441        1936.757          37.977  
G32  25412602.321                       -3040.239          22.477    25412605.919                       -2271.476          22.178  
R07  19715382.725                        2242.581          25.686  
R21  19984448.854   106940753.750       -1885.039          27.655  
> 2022  9 17 10  3 57.0004678  0 17
C06  39033483.781   203257611.461          45.376          30.380  
C09  39138394.653   203803939.594         634.454          24.778  
C27  25763526.182   134157452.664       -3075.510          34.416  
C32  22159242.276   115388980.914        -846.853          27.152  
E07                                                                  27447150.133   144235735.898       -2322.108          32.009    27447160.626   107708560.898       -1734.074          28.409  
E10                                                                  25895306.253   136080680.246        2697.979          27.639    25895315.846   101618799.293        2014.801          29.767  
E26                                                                  27789025.358   146032274.168       -2289.170          31.683    27789035.251   109050149.770       -1709.441          34.785  
E33                                                                  23875808.322   125468151.113        -799.560          28.267    23875803.825    93693795.230        -597.155          26.486  
G01  20414897.461   107281001.703       -1110.661          30.260    20414895.962    80112442.324        -829.455          31.297  
G03  20238724.123   106355198.625         289.233          27.553    20238723.223    79421083.932         216.002          32.412  
G17  21263635.392   111741164.8951       1284.281          28.156  
G19  22822158.049   119931243.305        3149.544          35.704  
G21  22268075.032   117019536.203       -1766.555          33.557  
G31  24043209.432   126347898.289        1937.237          37.818  
G32  25413233.385                       -3043.379          22.102    25413242.678    99727007.0821      -2270.662          22.020  
R07  19715018.477   105536034.5821       2243.128          25.777  
R21  19984861.069   106942959.473       -1884.871          27.281  
> 2022  9 17 10  3 58.0004681  0 18
C06  39033567.424   203258033.020          46.772          30.467  
C09  39138361.976   203803772.988         634.933          24.403  
C20  22382626.330   116552209.6991       2291.798          25.271  
C27  25764208.510   134160994.977       -3073.985          34.284  
C32  22159489.305   115390294.813        -845.571          28.448  
E07                                                                  27447682.565   144238529.059       -2320.535          32.057    27447690.659   107710646.715       -1732.883          28.247  
E10                                                                  25894884.145   136078453.195        2699.675          28.220    25894891.640   101617136.293        2015.933          29.634  
E26                                                                  27789550.894   146035034.387       -2287.592          30.915    27789558.989   109052210.936       -1708.233          34.705  
E33                                                                  23876049.655   125469421.871        -798.133          28.965    23876044.558    93694744.199        -596.034          25.708  
G01  20415196.653   107282583.754       -1109.425          30.600    20415196.953    80113623.721        -828.463          31.207  
G03  20238756.500   106355380.688         290.564          27.251    20238756.500    79421219.914         216.951          32.220  
G17  21263481.898   111740352.066        1285.455          28.517  
G19  22821650.800   119928565.168        3150.764          35.640  
G21  22268502.836   117021774.004       -1765.178          33.818  
G31  24042928.227   126346432.559        1938.356          38.118  
G32  25413898.024                       -3036.966          21.176    25413910.016                       -2269.249          21.751  
R07  19714677.613                        2244.204          26.239  
R21  19985298.466   106945324.520       -1883.774          28.398  
> 2022  9 17 10  3 59.0004683  0 18
C06  39033618.688   203258298.129          47.106          30.247  
C09  39138303.216                         635.885          24.456  
C20  22382249.191   116550230.012        2291.907          25.393  
C27  25764858.460   134164380.738       -3073.542          34.286  
C32  22159712.950   115391452.566        -845.537          28.219  
E07                                                                  27448184.717   144241164.543       -2320.402          31.843    27448192.812   107712614.748       -1732.742          28.179  
E10                                                                  25894429.659   136076068.441        2699.837          27.969    25894438.953   101615355.461        2016.123          29.864  
E26                                                                  27790044.652   146037636.824       -2287.355          30.500    27790056.344   109054154.320       -1708.095          35.126  
E33                                                                  23876260.109   125470534.996        -798.042          28.706    23876257.111    93695575.436        -595.947          26.355  
G01  20415470.364   107284008.277       -1109.439          29.741    20415468.265    80114687.459        -828.446          31.216  
G03  20238759.498   106355405.305         290.464          27.472    20238762.496    79421238.264         216.942          32.475  
G17  21263294.827   111739381.934        1285.214          27.586  
G19  22821109.075   119925729.605        3150.644          35.514  
G21  22268900.361   117023854.129       -1765.044          33.719  
G31  24042618.242   126344809.410        1938.232          37.810  
G32  25414533.585                       -3036.381          21.966    25414550.073    99732134.3501      -2269.416          22.438  
R07  19714323.558   105532349.0781       2243.861          26.084  
R21  19985712.779   106947529.438       -1884.063          27.964  
> 2022  9 17 10  4  0.0004685  0 18
C06  39033665.755   203258562.945          47.408          30.127  
C09  39138246.556                         636.292          24.592  
C20  22381869.654                        2290.285          25.210  
C27  25765508.110   134167766.227       -3073.266          34.031  
C32  22159937.195   115392610.270        -845.480          28.106  
E07                                                                  27448686.270   144243799.629       -2320.000          32.037    27448694.364   107714582.473       -1732.436          28.486  
E10                                                                  25893976.673   136073683.195        2700.332          27.775    25893985.067   101613574.193        2016.558          29.846  
E26                                                                  27790537.211   146040238.793       -2286.883          31.034    27790550.103   109056097.393       -1707.782          35.031  
E33                                                                  23876469.964   125471647.945        -797.863          28.404    23876469.364    93696406.469        -595.743          25.802  
G01  20415742.576   107285432.785       -1109.424          29.765    20415739.278    80115751.191        -828.444          31.324  
G03  20238763.995   106355429.820         290.572          27.654    20238766.993    79421256.533         217.020          32.676  
G17  21263111.055   111738411.871        1285.148          28.370  
G19  22820570.048   119922893.957        3150.734          35.300  
G21  22269292.490   117025934.008       -1764.792          33.815  
G31  24042310.355   126343186.293        1938.204          37.756  
G32  25415166.746                       -3038.501          21.956    25415192.229                       -2269.206          22.534  
R07  19713969.503   105530426.367        2243.674          26.110  
R21  19986107.306   106949734.523       -1884.242          27.356  
> 2022  9 17 10  4  1.0004687  0 20
C06  39033720.018   203258827.574          47.591          31.028  
C09  39138181.201   203802801.9531        636.051          23.167  
C20  22381488.918                        2291.159          25.340  
C27  25766161.657   134171151.523       -3073.076          34.338  
C32  22160159.341   115393768.039        -845.550          28.128  
E07                                                                  27449187.523   144246434.586       -2319.874          32.574    27449196.517   107716550.137       -1732.374          28.158  
E10                                                                  25893521.588   136071297.707        2700.569          27.952    25893531.781   101611792.906        2016.577          29.398  
E26                                                                  27791033.368   146042840.707       -2286.834          31.032    27791046.859   109058040.336       -1707.653          34.948  
E33                                                                  23876682.816   125472760.895        -797.867          28.181    23876679.219                        -595.941          24.880  
G01  20416010.290   107286857.469       -1109.601          29.831    20416010.590    80116815.082        -828.600          30.958  
G03  20238769.691   106355454.484         290.414          28.116    20238770.591    79421274.996         216.827          32.600  
G04  22183127.640                        3430.120          21.146  
G09  24908268.365                        4207.972          18.828  
G17  21262926.083   111737442.137        1284.818          27.998  
G19  22820032.520   119920058.520        3150.518          35.319  
G21  22269687.616   117028013.871       -1764.783          34.565  
G31  24042003.068   126341563.363        1938.012          38.182  
G32  25415813.698                       -3043.063          21.137    25415825.390    99737143.1721      -2269.033          22.106  
R07  19713621.444                        2240.940          25.788  
R21  19986541.405   106951939.977       -1884.601          28.659  
> 2022  9 17 10  4  2.0004689  0 19
C06  39033769.484   203259092.004          47.788          30.957  
C09  39138114.347                         638.697          23.456  
C20  22381109.380   116544290.6331       2292.172          25.914  
C27  25766806.511   134174536.379       -3072.639          33.223  
C32  22160380.888   115394925.504        -845.245          28.050  
E10                                                                  25893067.702   136068911.770        2701.023          27.778    25893076.396   101610011.240        2016.956          29.259  
E26                                                                  27791527.426   146045442.223       -2286.427          30.371    27791540.617   109059982.990       -1707.366          35.744  
G01  20416279.504   107288282.020       -1109.464          29.215    20416280.703    80117878.879        -828.509          31.085  
G03  20238774.188   106355479.125         290.446          28.143    20238775.088    79421293.367         216.918          32.274  
G04  22182535.550                        3428.002          19.873  
G09  24907517.684                        4212.577          16.109  
G17  21262740.211   111736472.348        1284.873          28.321  
G19  22819490.495   119917223.090        3150.517          35.035  
G21  22270083.642   117030093.426       -1764.468          33.991  
G22  23246194.095                       -2074.343          14.365  
G31  24041692.782   126339940.371        1938.076          38.172  
G32  25416453.156                       -3038.529          21.883    25416463.948                       -2268.458          22.202  
R07  19713252.100   105526581.6801       2243.265          26.126  
R21  19986936.532   106954145.520       -1884.691          28.159  
> 2022  9 17 10  4  3.0004691  0 19
C06  39033819.249   203259355.430          48.793          31.105  
C09  39138053.489                         641.104          21.779  
C20  22380725.646                        2292.615          25.660  
C27  25767456.761   134177920.234       -3071.636          33.119  
C32  22160603.034   115396082.469        -844.747          29.090  
E10                                                                  25892613.816   136066525.047        2701.807          27.744    25892621.011   101608228.893        2017.639          26.551  
E26                                                                  27792021.784   146048042.762       -2285.457          28.279    27792035.274   109061924.920       -1706.638          35.466  
G01  20416549.317   107289705.988       -1108.888          28.010    20416555.013    80118942.273        -828.103          31.600  
G03  20238778.685   106355503.055         291.153          27.732    20238778.685    79421311.314         217.344          32.806  
G04  22181947.957                        3426.338          20.052  
G09  24906783.792                        4216.999          18.265  
G17  21262553.141   111735502.215        1285.217          27.621  
