     3.03           OBSERVATION DATA    M: Mixed            RINEX VERSION / TYPE
Geo++ RINEX Logger  Geo++               20220917 082456 UTC PGM / RUN BY / DATE
************************************************************COMMENT
This file was generated by the Geo++ RINEX Logger App       COMMENT
for Android devices (Version 2.1.6). If you encounter       COMMENT
any issues, please send an email to android@geopp.de        COMMENT
Filtering Mode: BEST                                        COMMENT
************************************************************COMMENT
Geo++                                                       MARKER NAME
GEODETIC                                                    MARKER TYPE
Geo++               Geo++                                   OBSERVER / AGENCY
unknown             Xiaomi              MI 8                REC # / TYPE / VERS
unknown             MI 8                                    ANT # / TYPE
  4410312.9247   193657.1742  4588674.7223                  APPROX POSITION XYZ
        0.0000        0.0000        0.0000                  ANTENNA: DELTA H/E/N
G    8 C1C L1C D1C S1C C5Q L5Q D5Q S5Q                      SYS / # / OBS TYPES
R    4 C1C L1C D1C S1C                                      SYS / # / OBS TYPES
E   12 C1B L1B D1B S1B C1C L1C D1C S1C C5Q L5Q D5Q S5Q      SYS / # / OBS TYPES
C    4 C2I L2I D2I S2I                                      SYS / # / OBS TYPES
J    8 C1C L1C D1C S1C C5Q L5Q D5Q S5Q                      SYS / # / OBS TYPES
  2022     9    17     8    25   14.9996910     GPS         TIME OF FIRST OBS
 24 R01  1 R02 -4 R03  5 R04  6 R05  1 R06 -4 R07  5 R08  6 GLONASS SLOT / FRQ #
    R09 -2 R10 -5 R11  0 R12 -1 R13 -2 R14 -7 R15  0 R16 -1 GLONASS SLOT / FRQ #
    R17  4 R18 -3 R19  3 R20  2 R21  4 R22 -3 R23  3 R24  2 GLONASS SLOT / FRQ #
G L1C                                                       SYS / PHASE SHIFT
G L5Q -0.25000                                              SYS / PHASE SHIFT
R L1C                                                       SYS / PHASE SHIFT
E L1B                                                       SYS / PHASE SHIFT
E L1C +0.50000                                              SYS / PHASE SHIFT
E L5Q -0.25000                                              SYS / PHASE SHIFT
C L2I                                                       SYS / PHASE SHIFT
J L1C                                                       SYS / PHASE SHIFT
J L5Q -0.25000                                              SYS / PHASE SHIFT
 C1C    0.000 C1P    0.000 C2C    0.000 C2P    0.000        GLONASS COD/PHS/BIS
                                                            END OF HEADER
> 2022  9 17  8 25 14.9996910  0 24
C06  39344995.127   204879711.8901       1145.674          30.633  
C09  40085415.045                        1634.071          12.123  
C27  22586517.279   117613748.757       -1643.758          30.699  
C28  26738793.618   139235914.535       -2832.609          31.472  
C30  21646751.566                        1265.504          20.701  
C32  22353584.236                        1915.038          22.212  
C33  27072981.865                       -2984.243          22.806  
E07                                                                  25430139.880   133636286.818        -322.550          31.963    25430138.382    99793324.955        -240.851          32.070  
E24                                                                  26974979.710                        -121.244          16.470    26974978.811                         -88.257          25.618  
E26                                                                  25349507.401   133212560.0921      -1377.257          33.013    25349514.596    99476939.4431      -1028.533          31.169  
E33                                                                  23529249.739   123647042.0121        712.108          24.485    23529256.035                         533.194          25.047  
G01  20301980.931   106687628.9831       1461.488          26.089  
G03  21745489.111                        2971.119          22.416    21745483.415    85333947.3341       2218.787          25.510  
G10  24904400.143   130873482.383       -3057.385          25.031    24904412.434    97730262.864       -2282.924          23.162  
G14  23228416.702   122066152.681         -92.208          30.308  
G17  24168943.589   127008655.5891       3504.108          29.400  
G22  22267137.881   117014598.917        1159.568          38.224  
G27  24520192.124   128854406.185       -3466.655          33.028    24520197.820    96222522.798       -2588.776          27.739  
G28  24234820.283   127354839.4911       1412.397          26.620  
G32  22751733.203   119561164.422        -585.822          37.844    22751734.702    89282692.781        -437.441          32.336  
R05  20455311.283                       -2072.250          28.415  
R07  23591471.364                        4829.255          21.865  
R12  23247233.775                       -1390.591          16.652  
R20  20945141.580                       -2122.145          20.763  
> 2022  9 17  8 25 15.9996912  0 23
C06  39344835.637   204878874.432        1149.678          31.825  
C27  22586892.020   117615700.827       -1639.850          30.841  
C28  26739395.901   139239055.109       -2828.354          31.581  
C30  21646570.491                        1267.667          18.275  
C32  22353275.449                        1929.110          22.574  
C33  27073613.228                       -2976.111          22.438  
E07                                                                  25430260.997   133636920.530        -318.628          31.861    25430258.299    99793798.239        -237.994          32.041  
E24                                                                  26975060.354                        -119.118          15.432    26975063.352   105855931.3291        -86.250          25.900  
E26                                                                  25349828.179   133214248.262       -1373.086          32.860    25349835.674    99478200.040       -1025.307          31.018  
E33                                                                  23529175.990   123646640.940         716.156          23.997    23529178.689    92333554.1391        534.836          25.017  
G01  20301769.278                        1467.342          26.083    20301763.881    79668481.4601       1094.276          29.090  
G03  21744985.460   114270656.1621       2975.208          23.185    21744975.866                        2223.597          25.415  
G10  24905035.703                       -3051.586          22.922    24905053.390                       -2277.582          22.294  
G14  23228491.950   122066556.370         -88.604          30.311  
G17  24168333.811   127005462.298        3508.375          28.991  
G22  22266974.195   117013750.674        1163.327          38.120  
G27  24520909.827   128858183.712       -3462.443          32.120    24520916.723    96225343.677       -2585.588          28.443  
G28  24234615.525                        1418.199          25.969  
G32  22751904.384   119562061.525        -582.019          38.158    22751905.883    89283362.731        -434.660          32.476  
R05  20455766.068   109347747.8511      -2066.332          30.157  
R07  23590609.161                        4831.600          22.207  
R12  23247543.760                       -1389.189          15.514  
R20  20945575.080                       -2119.688          19.682  
> 2022  9 17  8 25 16.9996914  0 23
C06  39344671.950   204878031.996        1154.655          31.295  
C27  22587266.461   117617648.138       -1635.092          32.861  
C28  26739996.086   139242190.639       -2823.310          31.480  
C30  21646387.318                        1272.168          17.265  
C32  22352966.064                        1932.562          22.568  
C33  27074249.987                       -2965.448          23.016  
E07                                                                  25430381.813   133637549.686        -314.072          32.026    25430377.916    99794268.046        -234.517          31.390  
E24                                                                                                                                  26975142.198                         -80.914          26.178  
E26                                                                  25350154.653   133215931.370       -1368.023          32.146    25350156.752    99479456.925       -1021.595          30.831  
E33                                                                  23529103.740                         724.122          22.769    23529101.042    92333250.782         538.647          25.924  
G01  20301549.530   106685323.8121       1470.380          26.578    20301542.035    79667618.814        1097.936          29.169  
G03  21744481.209                        2980.212          22.063    21744468.917                        2226.662          25.510  
G10  24905692.248                       -3045.479          26.057    24905692.548                       -2273.529          21.730  
G14  23228567.797   122066955.381         -83.927          31.379  
G17  24167726.431   127002263.968        3513.415          28.884  
G22  22266815.005   117012897.815        1167.943          37.636  
G27  24521628.430   128861956.121       -3457.325          31.365    24521634.726    96228160.717       -2581.750          28.620  
G28  24234399.674   127352632.5241       1420.894          26.847  
G32  22752072.568   119562954.083        -577.474          39.000    22752074.966    89284029.272        -431.251          31.816  
R05  20456212.459   109350130.220       -2061.857          31.755  
R07  23589746.958                        4840.741          24.119  
R12  23247895.117                       -1379.948          16.794  
R20  20946019.073                       -2109.876          19.550  
> 2022  9 17  8 25 17.9996916  0 21
C06  39344507.964   204877186.610        1157.606          31.547  
C27  22587641.201   117619592.627       -1632.269          33.465  
C28  26740598.969   139245323.074       -2820.216          31.431  
C30  21646201.746                        1280.142          16.908  
C32  22352654.279                        1929.245          22.801  
C33  27074875.054                       -2963.217          22.727  
E07                                                                  25430501.130   133638176.078        -311.308          31.855    25430496.334    99794735.736        -232.400          31.169  
E26                                                                  25350470.335   133217611.539       -1365.085          31.826    25350476.930    99480711.547       -1019.332          30.770  
E33                                                                  23529022.197                         724.447          22.159    23529023.696                         540.853          25.763  
G01  20301334.279   106684165.940        1472.956          26.940    20301321.388    79666754.132        1099.972          29.389  
G03  21743977.258                        2982.660          23.176    21743960.769                        2227.509          25.379  
G10  24906334.403   130883573.2721      -3044.777          27.729    24906328.707    97737798.3741      -2273.798          20.494  
G14  23228640.047   122067351.890         -81.425          31.702  
G17  24167115.454   126999062.672        3516.380          28.717  
G22  22266648.320   117012042.404        1170.495          37.144  
G27  24522344.634   128865725.493       -3454.287          30.785    24522352.728    96230975.441       -2579.435          28.683  
G28  24234191.918   127351524.191        1423.417          27.477  
G32  22752244.649   119563844.126        -574.960          39.163    22752244.049    89284693.883        -429.320          31.821  
R05  20456658.550   109352510.057       -2059.324          31.458  
R12  23248193.411                       -1371.355          17.194  
R20  20946475.956                       -2102.398          18.744  
> 2022  9 17  8 25 18.9996918  0 23
C06  39344349.074   204876340.639        1158.191          31.492  
C27  22588012.944   117621536.634       -1631.788          33.712  
C28  26741200.952   139248454.870       -2819.576          30.736  
C30  21646011.378                        1283.046          14.582  
C32  22352347.592                        1927.225          22.868  
C33  27075504.918                       -2968.888          22.165  
E07                                                                  25430618.349   133638802.084        -310.922          31.802    25430615.951    99795203.247        -232.221          31.330  
E26                                                                  25350790.813   133219290.988       -1364.365          32.242    25350795.010    99481965.676       -1018.839          30.740  
E33                                                                  23528946.349                         724.517          22.517    23528944.251    92332639.3541        541.337          26.387  
G01  20301110.933   106683007.030        1473.994          26.478    20301102.239    79665889.039        1100.383          29.411  
G03  21743465.212   114262655.4391       2983.204          23.120    21743454.420    85325986.2781       2227.753          25.238  
G08  21746916.423   114280816.6131      -2416.242          23.940  
G10  24906974.460   130886932.265       -3043.910          27.750    24906970.563                       -2266.356          19.739  
G14  23228715.895   122067748.282         -81.308          31.599  
G17  24166510.473   126995860.693        3517.063          28.823  
G21  20839494.718                        -131.437          24.837  
G22  22266488.831   117011186.732        1170.756          36.849  
G27  24523056.641   128869494.100       -3453.523          30.319    24523068.933    96233789.702       -2578.971          28.894  
G28  24233985.961   127350415.473        1423.802          27.487  
G32  22752414.631   119564733.936        -574.726          39.317    22752414.931    89285358.381        -429.208          31.791  
R05  20457109.738   109354889.721       -2059.151          32.043  
R12  23248474.316                       -1376.149          17.734  
R20  20946937.637                       -2104.968          17.787  
> 2022  9 17  8 25 19.9996920  0 23
C06  39344186.586   204875493.558        1159.300          31.801  
C27  22588385.586   117623479.870       -1631.017          34.096  
C28  26741802.335   139251585.522       -2818.433          30.779  
C30  21645816.513                        1276.357          18.951  
C32  22352037.606   116392901.2061       1930.264          24.501  
C33  27076127.587                       -2971.273          21.929  
E07                                                                  25430737.367   133639427.398        -310.230          30.950    25430735.868    99795670.218        -231.681          32.000  
E26                                                                  25351109.492   133220969.371       -1363.300          31.356    25351115.188    99483219.101       -1018.134          30.479  
E33                                                                  23528869.902   123645005.2601        725.816          22.020    23528869.303                         542.700          25.567  
G01  20300883.691   106681847.819        1474.296          26.290    20300879.793    79665023.367        1100.962          28.521  
G03  21742962.760   114259986.529        2983.995          24.332    21742945.672    85323993.228        2228.340          25.602  
G08  21747438.362                       -2416.415          21.654    21747421.873                       -1801.933          18.665  
G10  24907612.419                       -3042.304          25.628    24907610.920                       -2271.347          22.445  
G14  23228794.740   122068144.034         -80.667          30.586  
G17  24165897.697   126992657.614        3518.163          29.849  
G21  20839579.559                        -129.989          24.411  
G22  22266320.947   117010330.438        1171.378          36.727  
G27  24523774.045   128873261.642       -3452.457          29.812    24523785.437    96236603.025       -2578.033          28.329  
G28  24233774.907                        1424.573          27.463  
G32  22752583.414   119565623.176        -574.156          38.515    22752582.215    89286022.428        -428.758          31.528  
R05  20457544.437   109357268.778       -2058.545          29.663  
R12  23248804.388                       -1379.765          21.090  
R20  20947445.785                       -2110.351          21.308  
> 2022  9 17  8 25 20.9996922  0 23
C06  39344022.300   204874645.424        1160.354          31.862  
C27  22588757.628   117625422.022       -1629.932          32.837  
C28  26742404.319   139254714.841       -2817.099          30.712  
C30  21645631.541                        1275.443          20.036  
C32  22351726.122                        1930.878          24.463  
C33  27076763.447                       -2965.727          22.844  
E07                                                                  25430855.485   133640051.857        -309.375          30.379    25430853.986    99796136.486        -230.978          31.966  
E26                                                                  25351428.171   133222646.692       -1362.237          30.634    25351432.369    99484471.598       -1017.207          31.114  
E33                                                                  23528789.858                         727.493          22.330    23528789.258                         543.196          25.179  
G01  20300663.343   106680687.700        1475.202          26.228    20300658.846    79664157.006        1101.652          27.725  
G03  21742460.608   114257316.599        2985.014          24.485    21742438.723    85321999.572        2228.945          25.044  
G08  21747953.105                       -2416.886          22.395    21747944.112                       -1806.230          19.323  
G10  24908245.580   130893646.6831      -3041.333          24.407    24908251.276    97745320.7621      -2271.407          24.061  
G14  23228869.388   122068539.121         -80.003          31.055  
G17  24165289.118   126989453.354        3519.344          30.276  
G21  20839662.902   109513173.6641       -129.443          25.232  
G22  22266160.558   117009473.336        1172.186          37.700  
G27  24524487.850   128877027.864       -3451.139          29.840    24524503.140    96239415.519       -2577.204          29.429  
G28  24233562.354   127348195.9061       1425.286          26.482  
G32  22752753.996   119566511.673        -573.413          38.331    22752751.598    89286685.868        -428.150          31.519  
R05  20457998.622   109359647.278       -2057.987          29.189  
R12  23249147.950                       -1381.220          21.419  
R20  20947875.088                       -2117.946          20.304  
> 2022  9 17  8 25 21.9996924  0 23
C06  39343860.112   204873796.274        1161.370          31.810  
C27  22589130.870   117627363.293       -1629.052          32.655  
C28  26743003.904   139257843.059       -2815.999          30.871  
C30  21645445.070                        1272.843          21.138  
C32  22351416.736                        1932.808          24.577  
C33  27077384.317                       -2959.850          22.161  
E07                                                                  25430971.805   133640675.447        -308.506          30.171    25430973.004    99796602.211        -230.436          32.165  
E26                                                                  25351745.951   133224322.818       -1361.042          30.127    25351752.847    99485723.261       -1016.373          31.890  
E33                                                                  23528704.117                         728.248          21.765    23528710.713                         543.782          24.950  
G01  20300448.392   106679526.528        1476.257          26.413    20300438.799    79663289.970        1102.325          27.915  
G03  21741948.562   114254645.894        2985.789          23.975    21741929.375    85320005.164        2229.698          24.901  
G08  21748474.145   114289005.0221      -2414.136          23.040    21748462.753                       -1804.605          20.746  
G10  24908881.740                       -3040.349          24.319    24908889.235    97747826.388       -2270.336          24.393  
G14  23228946.735   122068933.460         -79.255          31.369  
G17  24164679.940   126986247.992        3520.446          29.927  
G21  20839749.242   109513617.199        -128.451          24.734  
G22  22265995.072   117008615.602        1172.819          38.356  
G27  24525211.849   128880792.962       -3450.014          30.495    24525219.344    96242227.084       -2576.274          29.787  
G28  24233350.401   127347084.931        1426.059          26.371  
G32  22752923.379   119567399.548        -572.791          38.125    22752921.280    89287348.922        -427.763          31.283  
R05  20458439.017   109362025.284       -2057.493          30.015  
R12  23249446.243                       -1378.434          21.715  
R20  20948294.497                       -2112.188          19.823  
> 2022  9 17  8 25 22.9996926  0 24
C06  39343694.027   204872945.820        1162.674          31.441  
C27  22589499.315   117629303.592       -1628.079          32.089  
C28  26743603.489   139260969.940       -2814.661          30.605  
C30  21645267.893                        1277.030          21.044  
C32  22351117.543   116388041.5301       1932.965          24.323  
C33  27078015.980                       -2963.008          22.333  
E07                                                                  25431088.424   133641298.149        -307.618          29.358    25431091.122    99797067.177        -229.676          32.072  
E26                                                                  25352065.530   133225997.750       -1359.848          29.549    25352071.526    99486974.043       -1015.492          31.908  
E31                                                                  26880507.312                       -2089.818          18.912  
E33                                                                  23528629.769                         730.171          22.276    23528632.167    92331407.5641        544.553          25.369  
G01  20300225.946                        1478.084          26.339    20300218.751    79662422.142        1103.119          27.755  
G03  21741439.814                        2987.475          24.173    21741419.429    85318010.071        2230.383          25.042  
G08  21748988.289   114291733.298       -2413.192          23.503    21748981.393                       -1806.175          20.866  
G10  24909509.805                       -3038.288          23.459    24909529.292                       -2268.498          24.021  
G14  23229019.285   122069327.141         -78.597          31.257  
G17  24164069.863   126983041.356        3521.720          29.538  
G21  20839836.182   109514059.571        -127.288          25.314  
G22  22265833.184   117007757.021        1173.664          38.133  
G27  24525924.456   128884556.724       -3448.678          30.812    24525935.848    96245037.716       -2575.343          30.189  
G28  24233138.747   127345973.217        1426.798          26.391  
G32  22753092.762   119568286.611        -571.978          38.036    22753089.764    89288011.312        -427.100          30.964  
R05  20458888.106   109364402.499       -2056.703          30.381  
R12  23249797.900                       -1378.115          21.684  
R20  20948769.669                       -2105.623          18.994  
> 2022  9 17  8 25 23.9996928  0 24
C06  39343532.139   204872094.212        1163.827          32.240  
C27  22589873.456   117631242.782       -1626.971          32.460  
C28  26744202.774   139264095.433       -2813.274          31.004  
C30  21645076.026                        1282.072          20.515  
C32  22350801.562   116386419.837        1933.913          24.484  
C33  27078650.640                       -2965.998          23.040  
E07                                                                  25431206.842   133641919.883        -306.651          30.234    25431209.540    99797531.527        -229.060          32.675  
E26                                                                  25352378.813   133227671.499       -1358.665          30.279    25352391.105    99488223.818       -1014.485          30.797  
E31                                                                  26880962.697                       -2090.741          19.874  
E33                                                                  23528549.724                         730.606          22.994    23528554.221    92331097.425         545.429          25.845  
G01  20300003.800   106677201.8141       1478.188          26.452    20299994.506    79661553.605        1103.827          28.337  
G03  21740933.165                        2988.126          24.590    21740914.278    85316014.208        2231.153          25.006  
G08  21749502.733                       -2412.686          21.151    21749504.232                       -1799.316          22.309  
G10  24910165.451                       -3037.042          24.174    24910164.552    97752834.4091      -2268.228          24.357  
G14  23229093.933   122069719.979         -77.754          31.525  
G17  24163454.389   126979833.392        3523.048          29.718  
G21  20839917.725   109514500.948        -126.293          24.797  
G22  22265669.198   117006897.600        1174.505          37.294  
G27  24526645.756   128888319.147       -3447.340          30.962    24526652.052    96247847.237       -2574.231          29.175  
G28  24232922.597   127344860.532        1427.768          25.889  
G32  22753261.545   119569172.878        -571.183          38.957    22753259.746    89288673.204        -426.602          32.104  
R05  20459329.101   109366779.065       -2056.054          29.739  
R12  23250098.891                       -1378.006          21.142  
R20  20949208.565                       -2104.467          21.133  
> 2022  9 17  8 25 24.9996930  0 24
C06  39343368.453   204871242.176        1164.255          32.866  
C27  22590248.796   117633181.697       -1626.696          32.466  
C28  26744805.057   139267220.456       -2812.803          31.891  
C30  21644898.249                        1281.971          19.662  
C32  22350486.480                        1933.852          25.131  
C33  27079280.204                       -2961.844          23.219  
E07                                                                  25431324.960   133642541.494        -306.526          31.244    25431327.958    99797995.706        -228.889          32.389  
E26                                                                  25352701.090   133229344.723       -1358.140          30.175    25352706.487    99489473.316       -1014.208          30.365  
E31                                                                  26881425.277                       -2092.330          19.515  
E33                                                                  23528465.782                         731.334          24.422    23528473.577                         545.467          25.915  
G01  20299777.157   106676037.995        1478.903          25.722    20299774.459    79660684.931        1103.963          28.805  
G03  21740421.419                        2987.931          24.364    21740403.432                        2232.117          24.395  
G08  21750016.877                       -2412.873          18.061    21750023.772    85351732.7371      -1801.164          23.826  
G10  24910797.114   130907060.6491      -3036.471          26.651    24910802.210    97755337.553       -2267.854          24.733  
G14  23229169.780   122070112.838         -77.774          31.492  
G17  24162849.108   126976624.999        3523.477          30.056  
G21  20839995.371   109514941.839        -125.807          23.164  
G22  22265507.010   117006038.136        1174.548          37.588  
G27  24527360.162   128892080.978       -3446.747          32.006    24527367.357    96250656.448       -2573.920          29.003  
G28  24232716.939   127343747.844        1427.773          25.452  
G32  22753431.527   119570059.146        -571.184          39.618    22753428.229    89289335.013        -426.519          32.829  
R05  20459772.794   109369155.641       -2056.064          30.187  
R12  23250423.866                       -1369.806          20.600  
R20  20949684.036                       -2105.251          21.875  
> 2022  9 17  8 25 25.9996932  0 23
C06  39343205.066   204870389.214        1165.182          33.227  
C27  22590622.338   117635119.819       -1625.902          32.810  
C28  26745405.541   139270344.455       -2811.779          31.744  
C32  22350183.090                        1933.004          24.584  
C33  27079902.574                       -2958.982          22.433  
E07                                                                  25431442.179   133643162.447        -305.869          31.241    25431445.477    99798459.445        -228.449          32.341  
E26                                                                  25353020.669   133231016.921       -1357.114          30.632    25353026.665    99490722.127       -1013.521          29.785  
E31                                                                  26881881.860                       -2094.288          19.876  
E33                                                                  23528389.035   123642518.5371        731.825          23.858    23528394.431    92330475.8481        546.494          25.687  
G01  20299553.811   106674873.958        1479.122          26.086    20299553.212    79659815.636        1104.585          28.810  
G03  21739915.370   114243954.6811       2988.842          23.592    21739894.684    85312021.5601       2231.793          24.330  
G08  21750528.622                       -2412.664          17.828    21750541.214                       -1800.403          24.436  
G10  24911437.471   130910411.408       -3035.674          26.920    24911442.567    97757839.814       -2266.971          25.028  
G14  23229242.330   122070505.198         -77.276          31.548  
G17  24162238.730   126973415.550        3524.533          30.474  
G21  20840083.810                        -124.145          22.298  
G22  22265343.923   117005178.065        1175.155          37.180  
G27  24528077.265   128895841.801       -3445.739          32.636    24528083.561    96253464.851       -2573.114          28.413  
G28  24232504.986   127342634.401        1428.526          25.506  
G32  22753597.612   119570944.952        -570.723          39.481    22753597.013    89289996.426        -426.123          33.340  
R05  20460218.585   109371531.787       -2055.633          30.408  
R12  23250729.055                       -1371.430          20.388  
R20  20950149.613                       -2105.526          21.768  
> 2022  9 17  8 25 26.9996934  0 24
C06  39343042.279   204869536.196        1165.237          32.312  
C27  22590993.780   117637058.042       -1626.003          33.188  
C28  26746003.027   139273468.285       -2811.611          31.381  
C30  21644521.709                        1284.294          19.874  
C32  22349862.312   116381553.4391       1934.477          25.303  
C33  27080536.934                       -2960.599          22.286  
E07                                                                  25431560.297   133643783.663        -306.132          29.685    25431565.394    99798923.238        -228.503          32.657  
E26                                                                  25353339.049   133232689.114       -1357.109          30.361    25353345.344    99491970.833       -1013.416          31.084  
E31                                                                  26882338.145                       -2096.470          19.096  
E33                                                                  23528310.490                         731.813          23.013    23528314.387    92330164.633         546.505          26.353  
G01  20299331.965   106673709.882        1479.160          25.024    20299331.665    79658946.429        1104.497          28.845  
G03  21739399.427                        2989.629          22.508    21739387.435    85310024.975        2231.875          25.082  
G08  21751062.253                       -2409.154          21.604    21751058.955                       -1800.966          23.465  
G10  24912072.431   130913762.151       -3035.659          25.951    24912079.926                       -2266.451          23.527  
G14  23229318.178   122070897.944         -77.662          31.181  
G17  24161629.252   126970206.071        3524.563          30.308  
G21  20840168.052                        -124.655          23.208  
G22  22265176.039   117004318.337        1174.812          35.942  
G27  24528792.570   128899602.524       -3445.639          32.971    24528797.367    96256273.137       -2572.996          29.375  
G28  24232296.630   127341521.395        1428.090          27.400  
G32  22753765.796   119571831.076        -571.040          38.747    22753764.597    89290658.158        -426.443          33.166  
R05  20460662.278   109373908.385       -2056.085          29.661  
R12  23251057.928                       -1378.184          20.562  
R20  20950587.610                       -2108.574          21.571  
> 2022  9 17  8 25 27.9996936  0 25
C06  39342878.592   204868683.055        1165.361          31.706  
C27  22591367.322   117638996.325       -1626.063          33.465  
C28  26746603.512   139276591.866       -2811.362          31.504  
C29  25434857.714                        3339.356          25.851  
C30  21644352.626                        1277.709          20.536  
C32  22349547.530                        1933.730          25.504  
C33  27081165.899                       -2960.574          22.393  
E07                                                                  25431678.715   133644404.994        -306.247          28.878    25431683.512    99799387.262        -228.733          33.103  
E26                                                                  25353655.330   133234361.168       -1356.970          30.390    25353664.323    99493219.473       -1013.350          31.420  
E31                                                                  26882800.724                       -2099.486          18.349  
E33                                                                  23528227.747   123641685.1531        731.843          22.908    23528235.242    92329853.472         546.450          25.921  
G01  20299105.022   106672546.034        1478.932          24.402    20299109.519    79658077.298        1104.421          28.985  
G03  21738892.178                        2988.147          22.423    21738877.488    85308028.604        2231.661          25.154  
G08  21751587.489                       -2413.237          22.216    21751576.697                       -1801.264          22.829  
G10  24912707.092   130917112.590       -3035.355          25.490    24912716.685                       -2266.275          22.519  
G14  23229391.927   122071291.044         -78.015          31.438  
G17  24161016.776   126966996.400        3524.755          30.874  
G21  20840245.698   109516262.0341       -125.049          23.956  
G22  22265012.353   117003458.884        1174.537          36.161  
G27  24529509.074   128903362.961       -3445.353          33.286    24529513.871    96259081.309       -2572.882          29.642  
G28  24232080.780   127340408.573        1427.906          27.367  
G32  22753933.380   119572717.512        -571.352          38.415    22753933.380    89291320.140        -426.692          33.113  
R05  20461093.680   109376285.359       -2056.461          28.922  
R12  23251384.402                       -1379.496          21.238  
R20  20951043.594                       -2107.577          21.219  
> 2022  9 17  8 25 28.9996938  0 25
C06  39342713.406   204867829.662        1165.613          31.411  
C27  22591737.865   117640934.518       -1625.973          33.339  
C28  26747205.495   139279715.084       -2810.998          31.449  
C29  25434272.520   132442950.3061       3339.778          25.524  
C30  21644165.556                        1278.278          22.166  
C32  22349238.744   116378309.4131       1934.203          25.725  
C33  27081789.467                       -2955.694          22.486  
E07                                                                  25431797.433   133645026.365        -306.287          28.190    25431800.731    99799851.258        -228.706          33.211  
E26                                                                  25353972.810   133236032.902       -1356.650          30.260    25353982.103    99494467.821       -1013.058          31.457  
E31                                                                  26883264.803                       -2101.346          19.518  
E33                                                                  23528151.000   123641268.065         732.172          23.605    23528156.396    92329541.977         546.785          26.615  
G01  20298884.375   106671382.028        1479.090          23.824    20298889.171    79657208.043        1104.545          28.737  
G03  21738388.227                        2985.970          22.543    21738368.740    85306032.220        2231.674          25.469  
G08  21752105.830                       -2412.701          22.111    21752096.237                       -1801.226          22.635  
G10  24913349.247   130920462.580       -3034.906          25.260    24913353.145                       -2266.256          22.853  
G14  23229469.873   122071684.265         -78.137          31.405  
G17  24160404.900   126963786.469        3525.015          30.962  
G21  20840333.537   109516701.903        -124.786          24.174  
G22  22264850.465   117002599.559        1174.409          36.283  
G27  24530223.480   128907123.037       -3444.992          33.817    24530229.775    96261889.154       -2572.555          29.601  
G28  24231870.025   127339295.808        1427.850          27.534  
G32  22754102.762   119573604.085        -571.489          38.375    22754102.163    89291982.208        -426.778          32.993  
R05  20461551.163   109378662.610       -2056.739          28.408  
R12  23251711.475                       -1376.991          22.296  
R20  20951494.782                       -2106.796          21.317  
> 2022  9 17  8 25 29.9996941  0 25
C06  39342579.099   204867133.059        1164.932          31.552  
C27  22592138.388   117643029.685       -1626.838          33.133  
C28  26747834.460   139282995.018       -2811.605          31.460  
C29  25433723.300   132440079.585        3339.050          25.557  
C30  21644008.765                        1278.161          22.187  
C32  22348954.241                        1932.091          25.598  
C33  27082450.510                       -2956.728          21.898  
E07                                                                  25431944.931                        -308.168          27.277    25431949.128    99800433.639        -229.447          33.117  
E26                                                                  25354322.068   133237862.929       -1357.401          30.302    25354329.263    99495834.374       -1013.619          31.444  
E31                                                                  26883752.565                       -2103.700          19.119  
E33                                                                  23528097.037   123641009.303         731.388          23.281    23528107.530    92329348.810         546.101          26.879  
G01  20298688.610                        1477.304          23.489    20298697.904    79656457.252        1103.726          29.281  
G03  21737908.259                        2987.535          22.496    21737889.972    85304153.955        2231.200          25.555  
G08  21752648.155                       -2410.481          20.936    21752644.558                       -1801.882          22.746  
G10  24914018.384                       -3035.686          24.973    24914024.380                       -2266.360          21.857  
G14  23229571.802   122072236.177         -79.286          31.247  
G17  24159826.300   126960734.674        3524.420          30.918  
G21  20840452.855   109517300.035        -125.506          24.754  
G22  22264715.258   117001898.877        1173.308          36.373  
G27  24530966.365   128911041.328       -3445.665          34.371    24530975.059    96264815.120       -2573.032          29.531  
G28  24231685.653   127338341.716        1426.717          27.461  
G32  22754300.026   119574649.428        -572.717          38.057    22754301.225    89292762.744        -427.601          33.419  
R05  20462023.036   109381201.401       -2058.022          28.013  
R12  23252036.750                       -1377.317          21.388  
R20  20951947.768                       -2108.592          22.039  
> 2022  9 17  8 25 30.9996943  0 25
C06  39342415.413   204866281.371        1163.908          31.292  
C27  22592516.127   117644969.845       -1627.940          33.124  
C28  26748434.644   139286119.688       -2812.451          31.540  
C29  25433138.405                        3337.689          24.513  
C30  21643826.791                        1276.384          21.829  
C32  22348646.054                        1933.640          24.981  
C33  27083091.466                       -2961.951          21.904  
E07                                                                  25432062.150   133646430.0001       -308.587          26.382    25432069.345    99800899.365        -230.436          32.994  
E26                                                                  25354641.647   133239536.298       -1358.284          29.852    25354647.343    99497084.006       -1014.341          31.669  
E31                                                                  26884221.141                       -2105.151          19.523  
E33                                                                  23528016.993                         730.143          22.583    23528029.284    92329038.634         545.466          26.822  
G01  20298466.464                        1475.978          22.926    20298475.158    79655589.622        1102.920          29.405  
G03  21737408.505   114230747.6841       2986.441          23.477    21737383.323    85302159.144        2230.101          25.930  
G08  21753155.704                       -2408.944          18.856    21753165.897                       -1802.843          22.416  
G10  24914653.944   130927322.0801      -3035.851          25.406    24914657.841    97770467.7311      -2267.399          21.593  
G14  23229644.052   122072631.969         -80.708          31.183  
G17  24159216.822   126957526.324        3523.434          30.800  
G21  20840538.595   109517741.863        -126.744          24.300  
G22  22264555.169   117001041.996        1171.965          36.279  
G27  24531687.066   128914802.883       -3446.471          34.690    24531690.064    96267624.064       -2573.654          29.311  
G28  24231479.396   127337231.385        1425.415          27.778  
G32  22754472.407   119575538.590        -574.078          37.924    22754470.308    89293426.778        -428.744          33.742  
R05  20462459.534   109383581.427       -2059.514          27.923  
R12  23252364.423                       -1378.619          20.280  
R20  20952402.554                       -2109.954          21.875  
> 2022  9 17  8 25 31.9996945  0 23
C06  39342253.225   204865430.619        1162.971          31.367  
C27  22592888.469   117646911.176       -1629.111          33.398  
C28  26749034.829   139289245.149       -2813.241          31.416  
C29  25432563.103                        3336.670          24.621  
C30  21643646.915                        1275.233          24.061  
C32  22348338.167   116373606.2891       1930.688          25.029  
C33  27083715.034                       -2962.984          21.734  
E07                                                                  25432177.870   133647054.744        -309.660          26.513    25432187.163    99801366.012        -231.357          32.972  
E26                                                                  25354960.626   133241210.598       -1359.217          29.801    25354966.922    99498334.331       -1015.035          31.502  
E33                                                                  23527941.445                         729.766          23.136    23527949.240    92328729.175         544.749          26.983  
G01  20298248.815                        1473.249          22.583    20298254.511    79654722.776        1102.136          29.485  
G03  21736886.866                        2981.566          22.267    21736873.376    85300165.155        2229.278          26.007  
G08  21753671.347                       -2409.740          17.653    21753683.039                       -1804.007          23.463  
G10  24915288.904   130930674.223       -3037.059          26.718    24915297.898                       -2267.557          22.451  
G14  23229722.897   122073029.166         -82.113          31.283  
G17  24158600.749   126954318.777        3522.631          30.560  
G21  20840618.340                        -128.342          24.192  
G22  22264391.782   117000186.503        1170.576          36.335  
G27  24532400.872   128918565.315       -3447.348          35.078    24532406.868    96270433.623       -2574.269          29.016  
G32  22754639.391   119576429.151        -575.476          38.187    22754639.391    89294091.776        -429.708          33.608  
R05  20462910.722   109385962.848       -2060.908          28.097  
R12  23252708.885                       -1381.009          20.834  
R20  20952875.026                       -2106.845          21.799  
> 2022  9 17  8 25 32.9996947  0 24
C06  39342089.838   204864580.709        1162.130          31.722  
C27  22593259.612   117648853.530       -1630.135          34.433  
C28  26749635.613   139292371.441       -2814.073          31.665  
C29  25431980.007                        3339.266          21.756  
C30  21643455.647   112703112.3141       1275.581          26.071  
C32  22348028.482                        1928.829          25.496  
C33  27084341.301                       -2963.587          22.079  
E07                                                                  25432298.086   133647680.822        -310.995          29.367    25432306.181    99801833.479        -232.177          32.641  
E26                                                                  25355278.706   133242885.776       -1360.094          28.835    25355283.802    99499585.231       -1015.611          32.258  
E33                                                                                                                                  23527871.593    92328420.558         543.906          27.272  
G01  20298024.870                        1469.082          22.242    20298033.564    79653856.857        1101.209          28.384  
G03  21736368.225                        2977.928          19.292    21736365.227    85298171.895        2228.550          26.390  
G08  21754208.875                       -2417.927          18.228    21754205.577    85368146.4621      -1803.905          22.651  
G10  24915928.362   130934027.063       -3037.756          28.387    24915935.857    97775474.8181      -2268.559          26.195  
G14  23229799.345   122073427.689         -83.439          31.360  
G17  24157992.170   126951112.153        3521.708          29.771  
G21  20840702.582   109518628.2361       -128.559          23.813  
G22  22264228.695   116999332.265        1169.322          36.585  
G27  24533117.376   128922328.493       -3448.094          35.488    24533122.773    96273243.803       -2574.890          28.229  
G28  24231050.992   127335014.4771       1422.905          27.809  
G32  22754808.774   119577320.960        -576.726          39.498    22754809.673    89294757.775        -430.709          32.944  
R05  20463343.322   109388345.723       -2062.363          29.183  
R12  23253014.673                       -1383.320          21.965  
R20  20953353.795                       -2107.972          22.217  
> 2022  9 17  8 25 33.9996949  0 25
C06  39341927.950   204863731.660        1161.268          31.816  
C27  22593631.954   117650796.811       -1631.061          34.583  
C28  26750237.896   139295498.445       -2814.784          31.590  
C29  25431393.613                        3335.627          20.272  
C30  21643265.579   112702150.091        1274.442          26.152  
C32  22347714.000   116370372.8161       1928.368          24.871  
C33  27084964.869                       -2961.661          22.079  
E07                                                                  25432418.603   133648308.006        -312.100          30.152    25432425.798    99802301.803        -233.034          32.472  
E26                                                                  25355604.580   133244561.892       -1361.032          28.137    25355602.182    99500836.744       -1016.223          32.426  
E31                                                                  26885604.983                       -2105.436          18.983  
E33                                                                  23527783.454                         727.397          22.598    23527793.048    92328112.306         543.542          27.179  
G01  20297801.225                        1471.074          22.401    20297812.017    79652991.637        1100.510          27.710  
G03  21735870.570                        2974.704          17.661    21735858.578    85296179.453        2227.732          25.877  
G08                                                                  21754724.817    85370186.638       -1804.885          23.041  
G10  24916570.517   130937380.714       -3038.567          28.989    24916575.014    97777979.127       -2269.019          26.970  
G14  23229874.892   122073827.493         -84.719          31.611  
G17  24157387.788   126947906.349        3520.888          30.117  
G21  20840790.421                        -128.940          22.745  
G22  22264067.707   116998479.252        1168.096          36.641  
G27  24533833.880   128926092.448       -3448.872          35.525    24533839.876    96276054.539       -2575.446          28.292  
G28  24230841.737   127333907.862        1421.699          28.221  
G32  22754979.356   119578214.102        -578.057          39.300    22754979.955    89295424.717        -431.652          32.761  
R05  20463782.818   109390730.020       -2063.785          29.036  
R12  23253327.356                       -1384.477          22.208  
R20  20953778.601                       -2108.520          21.562  
> 2022  9 17  8 25 34.9996951  0 25
C06  39341762.465   204862882.887        1160.993          31.658  
C27  22594011.192   117652740.560       -1631.529          33.850  
C28  26750836.881   139298625.573       -2814.908          31.396  
C29  25430808.118                        3337.211          20.927  
C30  21643079.708   112701188.195        1274.116          25.311  
C32  22347404.314                        1928.330          23.414  
C33  27085597.431                       -2959.547          22.288  
E07                                                                  25432538.820   133648935.696        -312.606          30.297    25432545.115    99802770.540        -233.448          32.185  
E26                                                                  25355921.161   133246238.175       -1361.199          29.210    25355922.360    99502088.533       -1016.499          32.221  
E31                                                                  26886058.569                       -2104.188          18.696  
E33                                                                  23527707.907                         727.600          22.361    23527713.903    92327804.443         543.154          27.066  
G01                                                                  20297592.269                        1100.536          28.019  
G03  21735349.531                        2984.417          16.821    21735350.430    85294187.354        2227.389          25.306  
G08                                                                  21755244.658                       -1804.315          22.319  
G10  24917208.476   130940734.404       -3038.606          29.240    24917212.972    97780483.513       -2269.097          27.766  
G14  23229952.538   122074227.965         -85.388          30.767  
G17  24156776.512   126944700.664        3520.769          29.804  
G21  20840869.566   109519517.8451       -129.748          24.379  
G22  22263904.919   116997626.858        1167.478          36.045  
G27  24534548.286   128929856.511       -3448.979          35.593    24534554.581    96278865.450       -2575.621          28.290  
G28  24230633.681   127332801.818        1421.128          27.253  
G32  22755149.937   119579107.897        -578.711          39.294    22755149.638    89296092.165        -432.158          32.243  
R05  20464248.396   109393115.080       -2064.548          29.460  
R12  23253634.944                       -1386.052          23.570  
R20  20954246.277                       -2111.556          21.956  
> 2022  9 17  8 25 35.9996953  0 24
C06  39341599.677   204862032.633        1162.474          31.724  
C27  22594379.337   117654682.938       -1630.159          34.008  
C28  26751436.466   139301751.110       -2813.318          31.529  
C29  25430231.917                        3337.824          21.731  
C30  21642892.637                        1276.359          24.793  
C32  22347089.232                        1923.853          22.559  
C33  27086222.199                       -2962.672          21.810  
E07                                                                  25432656.938   133649562.194        -311.414          30.086    25432664.433    99803238.389        -232.558          32.665  
E26                                                                  25356240.440   133247912.863       -1359.605          28.644    25356240.140    99503339.170       -1015.347          32.446  
E33                                                                  23527629.061                         729.423          22.104    23527634.158    92327495.436         544.297          27.263  
G01  20297353.035                        1474.957          21.937    20297372.521    79651260.8921       1101.157          28.299  
G03  21734845.580                        2994.699          15.551    21734844.980    85292194.355        2228.289          26.003  
G08                                                                  21755763.598    85374266.5781      -1804.253          22.404  
G10  24917846.434   130944086.395       -3036.907          28.966    24917849.132    97782986.659       -2267.856          27.350  
G14  23230029.885   122074627.433         -84.385          30.767  
G17  24156161.038   126941493.576        3522.172          29.586  
G21  20840952.009                        -127.667          24.391  
G22  22263745.130   116996773.414        1168.528          36.241  
G27  24535267.188   128933619.030       -3447.435          35.438    24535270.785    96281675.121       -2574.382          27.520  
G28  24230423.827   127331694.635        1422.267          27.579  
G32  22755319.620   119580000.605        -577.625          39.304    22755319.920    89296758.807        -431.352          32.612  
R05  20464686.992   109395499.075       -2063.482          29.296  
R12  23253959.619                       -1383.819          23.337  
R20  20954684.574                       -2119.122          19.733  
> 2022  9 17  8 25 36.9996955  0 25
C06  39341436.890   204861180.183        1164.670          31.728  
C27  22594751.379   117656623.354       -1628.196          33.612  
C28  26752036.950   139304874.400       -2811.070          31.403  
C29  25429658.414                        3341.397          21.551  
C30  21642702.869                        1277.100          24.345  
C32  22346779.247                        1934.504          22.344  
C33  27086851.163                       -2958.786          21.970  
E07                                                                  25432777.455   133650186.738        -309.460          30.302    25432783.450    99803704.726        -231.047          32.438  
E26                                                                  25356560.319   133249585.340       -1357.393          28.477    25356558.520    99504588.169       -1013.709          32.594  
E31                                                                  26886991.523                       -2101.792          20.054  
E33                                                                  23527549.017                         732.032          21.789    23527558.310    92327184.799         545.927          27.152  
G01  20297138.084                        1475.708          21.666    20297150.975    79650393.568        1102.615          28.309  
G03  21734338.331                        3000.398          13.018    21734333.534    85290199.854        2229.791          25.905  
G08                                                                  21756284.338                       -1801.571          21.655  
G10  24918483.193   130947436.108       -3034.629          28.935    24918487.690                       -2265.258          27.387  
G14  23230102.435   122075025.130         -82.613          30.281  
G17  24155552.159   126938284.081        3524.578          30.103  
G21  20841045.245   109520402.9401       -126.390          24.412  
G22  22263576.347   116995918.110        1170.387          36.187  
G27  24535981.593   128937379.235       -3445.120          35.265    24535986.090    96284483.099       -2572.687          27.804  
G28  24230213.372   127330585.610        1424.109          27.207  
G32  22755488.403   119580891.597        -575.908          39.114    22755489.902    89297424.092        -429.996          32.644  
R05  20465138.180   109397881.524       -2061.937          29.803  
R12  23254276.499                       -1381.527          23.902  
R20  20955171.736                       -2112.647          17.900  
> 2022  9 17  8 25 37.9996957  0 25
C06  39341272.004   204860325.542        1166.860          32.055  
C27  22595120.124   117658561.688       -1626.115          31.116  
C28  26752637.434   139307995.343       -2808.724          32.289  
C29  25429073.219   132415877.9141       3341.962          26.051  
C30  21642517.597   112698293.0381       1279.204          24.330  
C32  22346467.462                        1937.599          22.329  
C33  27087480.727                       -2953.745          23.580  
E07                                                                  25432898.571   133650809.390        -307.568          31.339    25432901.569    99804169.662        -229.646          33.258  
