     3.03           OBSERVATION DATA    M: Mixed            RINEX VERSION / TYPE
Geo++ RINEX Logger  Geo++               20220917 220830 UTC PGM / RUN BY / DATE
************************************************************COMMENT
This file was generated by the Geo++ RINEX Logger App       COMMENT
for Android devices (Version 2.1.6). If you encounter       COMMENT
any issues, please send an email to android@geopp.de        COMMENT
Filtering Mode: BEST                                        COMMENT
************************************************************COMMENT
Geo++                                                       MARKER NAME
GEODETIC                                                    MARKER TYPE
Geo++               Geo++                                   OBSERVER / AGENCY
unknown             Xiaomi              MI 8                REC # / TYPE / VERS
unknown             MI 8                                    ANT # / TYPE
  4410316.8534   193653.1727  4588682.9424                  APPROX POSITION XYZ
        0.0000        0.0000        0.0000                  ANTENNA: DELTA H/E/N
G    8 C1C L1C D1C S1C C5Q L5Q D5Q S5Q                      SYS / # / OBS TYPES
R    4 C1C L1C D1C S1C                                      SYS / # / OBS TYPES
E   12 C1B L1B D1B S1B C1C L1C D1C S1C C5Q L5Q D5Q S5Q      SYS / # / OBS TYPES
C    4 C2I L2I D2I S2I                                      SYS / # / OBS TYPES
J    8 C1C L1C D1C S1C C5Q L5Q D5Q S5Q                      SYS / # / OBS TYPES
  2022     9    17    22     8   48.9998048     GPS         TIME OF FIRST OBS
 24 R01  1 R02 -4 R03  5 R04  6 R05  1 R06 -4 R07  5 R08  6 GLONASS SLOT / FRQ #
    R09 -2 R10 -5 R11  0 R12 -1 R13 -2 R14 -7 R15  0 R16 -1 GLONASS SLOT / FRQ #
    R17  4 R18 -3 R19  3 R20  2 R21  4 R22 -3 R23  3 R24  2 GLONASS SLOT / FRQ #
G L1C                                                       SYS / PHASE SHIFT
G L5Q -0.25000                                              SYS / PHASE SHIFT
R L1C                                                       SYS / PHASE SHIFT
E L1B                                                       SYS / PHASE SHIFT
E L1C +0.50000                                              SYS / PHASE SHIFT
E L5Q -0.25000                                              SYS / PHASE SHIFT
C L2I                                                       SYS / PHASE SHIFT
J L1C                                                       SYS / PHASE SHIFT
J L5Q -0.25000                                              SYS / PHASE SHIFT
 C1C    0.000 C1P    0.000 C2C    0.000 C2P    0.000        GLONASS COD/PHS/BIS
                                                            END OF HEADER
> 2022  9 17 22  8 48.9998048  2  0
> 2022  9 17 22  8 48.9998048  0 26
C13  41727037.473                        2449.668          26.485  
C14  24683467.191                       -2190.489          18.784  
C24  22446875.751                        1818.703          31.308  
C26  21871879.513   113892615.3381       -599.455          28.617  
C29  24900117.907                       -1687.000          30.395  
C33  24830060.307   129296639.5721      -1067.004          29.403  
E02                                                                                                                                  26014315.464                        1791.560          21.640  
E03                                                                  24651580.666                        -810.101          28.995    24651582.764    96738105.5761       -603.627          21.941  
E08                                                                                                                                  26381698.830   103527452.3911       1408.336          22.678  
E10                                                                                                                                  26767448.981   105041218.3571       1915.878          30.737  
E24                                                                                                                                  25290897.076    99246912.1111      -1220.320          28.428  
E25                                                                  23580042.376   123913958.8711        643.719          37.220    23580047.173    92533169.7271        480.707          30.154  
G06  23818593.231   125167551.4211       1571.430          33.322    23818591.132    93469266.6951       1173.195          26.993  
G11  24543060.293   128974652.2001       2901.717          26.433  
G12  20136779.997   105819492.9801       -263.575          36.242  
G19  23534398.075   123674096.2211      -2744.977          28.452  
G22  23770279.578   124913662.0101       2994.820          26.094  
G24  21205257.406   111434379.2831      -2067.597          27.986    21205261.003    83213998.7051      -1545.291          32.102  
G25  20677898.189   108663088.1321       2095.499          29.153    20677899.688                        1568.367          26.611  
G29  24407965.417                        4144.264          24.554  
G32  22055393.869                        1459.367          24.434    22055389.671    86550085.4631       1089.541          28.372  
R14  20551297.033   109549976.9731      -1693.318          29.640  
R15  19808732.400                        1370.059          31.406  
R17  21936702.737                        4286.448          25.012  
R23  22604900.553                       -2399.461          18.883  
R24  20828976.799                         973.288          31.954  
> 2022  9 17 22  8 49.9998050  0 26
C13  41726622.261                        2453.905          21.431  
C14  24683959.151                       -2187.583          18.852  
C24  22446583.154                        1819.026          35.412  
C26  21872056.690                        -601.595          26.258  
C29  24900498.943                       -1693.071          27.778  
C33  24830325.323                       -1067.818          25.183  
E02                                                                                                                                  26013917.640                        1799.872          24.973  
E03                                                                  24651784.225   129546056.1731       -810.509          28.600  
E08                                                                                                                                  26381400.836                        1406.331          26.750  
E10                                                                                                                                  26767019.378                        1916.047          28.188  
E24                                                                                                                                  25291268.219    99248368.543       -1221.142          25.939  
E25                                                                  23579979.420                         636.693          33.413    23579986.615                         478.737          30.341  
G11  24542576.128                        2901.346          24.683  
G12  20136894.818                        -265.151          36.448  
G19  23534984.469                       -2749.488          28.141  
G22  23769767.233   124910983.898        2993.196          27.731  
G24  21205710.392                       -2069.550          26.526    21205717.287    83215780.056       -1546.062          33.185  
G25  20677557.325                        2095.802          30.107    20677560.323                        1562.083          36.984  
G29  24407237.521                        4142.787          21.192  
G32  22055176.219                        1458.242          32.984  
R05  21115176.667                       -2197.718          27.671  
R14  20551678.369                       -1694.359          31.978  
R15  19808537.235                        1367.955          32.419  
R17  21935970.344                        4283.663          28.338  
R23  22605394.611                       -2404.098          28.237  
R24  20828841.893                         967.213          32.488  
> 2022  9 17 22  8 50.9998052  0 26
C13  41726209.446                        2452.874          17.971  
C14  24684424.728                       -2185.534          15.364  
C24  22446296.852                        1816.717          31.728  
C26  21872232.369   113894439.2941       -600.504          29.524  
C29  24900883.877   129665453.3891      -1689.996          28.959  
C33  24830593.938                       -1071.275          22.783  
E02                                                                                                                                  26013516.517                        1775.314          19.728  
E03                                                                  24651998.277   129547181.669        -810.413          28.982  
E08                                                                                                                                  26381103.442   103525109.7651       1406.371          28.193  
E10                                                                                                                                  26766590.375   105037861.4461       1915.722          28.168  
E24                                                                                                                                  25291637.264    99249824.487       -1220.654          25.827  
E25                                                                                                                                  23579928.155    92532681.1861        479.951          25.417  
G11  24542077.273                        2901.486          21.887  
G12  20136997.946   105820650.7401       -264.822          36.703  
G19  23535574.161                       -2749.982          24.088  
G22  23769250.690                        2992.509          28.772  
G24  21206169.674                       -2070.259          24.241    21206169.974    83217561.506       -1546.160          30.936  
G25  20677211.664                        2096.455          25.550    20677221.557    81141861.3681       1563.599          33.411  
G29  24406508.426                        4146.735          17.980  
G32  22054957.671   115899592.5681       1456.782          31.225    22054953.174                        1086.617          24.437  
R05  21115645.543   112875240.7811      -2200.293          28.489  
R14  20552047.414   109554005.3071      -1694.358          32.801  
R15  19808333.076   105849767.9831       1367.315          30.105  
R17  21935240.649                        4289.801          25.240  
R23  22605911.753   120926424.4041      -2405.339          28.628  
R24  20828725.873   111380596.2431        971.072          29.122  
> 2022  9 17 22  8 51.9998053  0 26
C13  41725775.047                        2453.092          15.351  
C14  24684866.922                       -2180.111          15.523  
C24  22445974.875   116882094.7251       1817.456          28.993  
C26  21872378.068   113895194.913        -599.509          31.193  
C29  24901237.932   129667298.589       -1689.090          29.539  
C33  24830830.174                       -1067.607          22.092  
E03                                                                  24652183.249   129548148.661        -809.450          29.381    24652187.146    96740508.6791       -604.402          24.716  
E08                                                                                                                                  26380774.870   103523820.249        1407.161          29.068  
E10                                                                                                                                  26766132.292   105036062.777        1916.314          29.180  
E24                                                                                                                                  25291978.128    99251161.911       -1219.779          27.155  
E25                                                                  23579831.023                         644.264          24.746    23579836.119    92532317.717         481.113          21.992  
G06  23817846.748                        1566.930          21.091  
G11  24541563.729                        2894.559          18.323  
G12  20137080.989   105821072.158        -263.876          37.178  
G19  23536126.079                       -2746.948          21.922  
G22  23768716.160   124905471.3621       2993.352          28.782  
G24  21206595.380                       -2071.506          22.583    21206595.380    83219224.410       -1545.259          29.710  
G25  20676850.115                        2097.305          22.921    20676853.712    81140414.709        1564.304          31.433  
G29  24405752.949                        4145.346          15.055  
G32  22054711.841   115898292.625        1457.485          30.740    22054706.145                        1088.915          22.224  
R05  21116098.529   112877600.644       -2199.607          29.236  
R14  20552397.571   109555858.248       -1693.135          32.754  
R15  19808111.530   105848559.759        1368.425          30.068  
R17  21934462.687                        4292.108          24.450  
R23  22606375.832   120928989.455       -2404.682          28.143  
R24  20828561.887   111379785.241         971.314          27.847  
> 2022  9 17 22  8 52.9998055  0 25
C14  24685332.800                       -2168.160          12.637  
C24  22445683.477   116880587.332        1819.613          27.627  
C26  21872553.446   113896104.574        -597.441          29.961  
C29  24901623.165   129669298.042       -1687.234          29.471  
C33  24831087.995                       -1062.080          20.063  
E03                                                                  24652396.701   129549271.387        -807.641          29.359    24652402.997                        -602.492          23.367  
E08                                                                                                                                  26380475.377   103522646.944        1408.595          28.674  
E10                                                                                                                                  26765705.688   105034380.090        1917.977          29.062  
E24                                                                                                                                  25292348.372    99252615.220       -1218.019          26.019  
E25                                                                  23579771.364                         647.569          21.816    23579775.861                         481.614          19.010  
G06  23817609.912                        1569.505          20.377  
G11  24541064.874                        2902.972          20.611  
G12  20137191.912   105821649.259        -262.017          36.668  
G19  23536704.379                       -2743.514          20.055  
G22  23768202.616   124902791.096        2995.351          29.685  
G24  21207056.460                       -2069.730          22.470    21207048.366                       -1538.535          28.841  
G25  20676508.051                        2096.896          23.380    20676515.246    81139084.248        1565.751          31.490  
G29  24405014.560                        4142.995          14.397  
G32  22054495.091   115897148.485        1459.225          30.057    22054490.594                        1090.706          22.156  
R05  21116573.101   112880119.139       -2197.982          29.448  
R14  20552776.209   109557869.033       -1691.172          33.261  
R15  19807923.260   105847509.759        1370.399          29.433  
R17  21933720.102                        4294.628          22.496  
R23  22606889.676   120931713.244       -2403.052          28.523  
R24  20828446.766   111379133.019         972.847          28.335  
> 2022  9 17 22  8 53.9998057  0 25
C14  24685791.482                       -2169.226          13.020  
C24  22445398.074   116879077.467        1822.084          26.763  
C26  21872729.724   113897011.860        -595.067          29.056  
C29  24902005.700   129671295.338       -1685.076          29.613  
C33  24831354.511                       -1060.752          20.828  
E03                                                                  24652609.853   129550391.804        -805.333          29.648    24652614.350                        -600.472          23.196  
E08                                                                                                                                  26380176.784   103521471.933        1410.301          28.238  
E10                                                                                                                                  26765275.485   105032695.659        1919.721          28.786  
E24                                                                                                                                  25292717.416    99254066.611       -1216.101          25.779  
E25                                                                  23579703.311                         649.812          20.525  
G06  23817367.679                        1572.463          19.485  
G11  24540581.609                        2910.469          22.306  
G12  20137299.238   105822224.091        -259.748          36.343  
G19  23537288.674                       -2738.016          19.435  
G22  23767690.870   124900108.469        2997.711          30.596  
G24  21207513.644                       -2062.199          22.096    21207501.952    83222780.0321      -1542.146          28.572  
G25  20676161.491                        2098.358          22.912    20676174.682    81137752.094        1567.444          31.932  
G29  24404271.674                        4141.967          11.604  
G32  22054276.242   115896002.336        1461.232          29.835    22054269.947                        1091.990          22.045  
R05  21117039.578   112882635.524       -2195.873          30.180  
R14  20553153.948   109559877.361       -1688.715          33.129  
R15  19807718.802   105846457.409        1372.750          29.787  
R17  21932999.400                        4292.267          22.143  
R23  22607408.017   120934434.846       -2400.864          28.528  
R24  20828326.550   111378478.914         974.730          28.738  
> 2022  9 17 22  8 54.9998059  0 23
C13  41724542.001                        2464.510          16.185  
C24  22445110.573                        1825.855          27.137  
C26  21872901.805   113897916.746        -592.666          28.659  
C29  24902388.835   129673290.329       -1682.772          29.116  
C33  24831619.228                       -1060.146          20.177  
E03                                                                  24652821.507   129551510.086        -803.198          28.954    24652826.004                        -599.685          22.864  
E08                                                                                                                                  26379877.291   103520295.177        1412.046          28.291  
E10                                                                                                                                  26764845.283   105031009.423        1921.525          28.128  
E24                                                                                                                                  25293088.259    99255516.124       -1214.223          25.667  
G06  23817121.250                        1577.720          19.121    23817119.152                        1177.894          22.305  
G11  24540072.861                        2907.454          22.029  
G12  20137410.161   105822796.719        -257.544          36.235  
G19  23537871.471                       -2737.010          20.810  
G22  23767183.321   124897423.506        3000.046          29.981  
G24  21207950.741                       -2061.132          20.911    21207952.840    83224555.737       -1540.416          28.439  
G25  20675816.730                        2102.639          22.954    20675835.317    81136418.162        1569.222          31.824  
G32  22054059.492   115894853.525        1463.896          29.999    22054052.297                        1093.824          22.407  
R05  21117517.147   112885149.964       -2193.928          30.017  
R14  20553530.187   109561883.261       -1686.288          33.416  
R15  19807518.840   105845402.607        1375.202          29.501  
R17  21932237.628                        4296.465          21.245  
R23  22607910.469   120937154.523       -2398.939          28.535  
R24  20828198.538   111377822.972         976.567          28.683  
> 2022  9 17 22  8 55.9998060  0 24
C13  41724093.811                        2471.150          14.757  
C14  24686721.139                       -2173.780          14.302  
C24  22444785.898   116875894.4581       1826.936          28.099  
C26  21873044.506   113898663.180        -590.324          28.444  
C29  24902740.192   129675127.037       -1680.598          28.770  
C33  24831859.661                       -1059.994          21.175  
E03                                                                  24653005.280   129552468.436        -800.809          28.413    24653010.376                        -598.026          22.445  
E08                                                                                                                                  26379545.721   103518999.075        1413.747          28.806  
E10                                                                                                                                  26764385.701   105029203.711        1923.357          27.862  
E24                                                                                                                                  25293425.526    99256845.979       -1212.210          25.305  
G06  23816848.739                        1582.206          20.942    23816848.139                        1178.039          22.095  
G11  24539556.618                        2910.613          21.365  
G12  20137488.707   105823209.567        -255.306          36.291  
G19  23538419.791                       -2736.881          22.034  
G22  23766639.198   124894578.653        3002.395          30.011  
G24  21208360.258                       -2057.867          21.113    21208377.046    83226212.038       -1538.655          28.828  
G25  20675465.673                        2104.988          22.356    20675464.174    81134964.934        1570.873          31.405  
G32  22053807.367   115893545.651        1465.416          29.780    22053801.371    86543873.1131       1094.329          21.402  
R05  21117953.045   112887502.085       -2191.865          29.693  
R14  20553884.242   109563726.890       -1683.823          32.853  
R15  19807304.788   105844185.167        1377.639          29.423  
R17  21931456.369                        4303.242          22.229  
R23  22608388.338   120939711.757       -2396.865          28.865  
R24  20828047.743                         979.624          28.086  
> 2022  9 17 22  8 56.9998062  0 24
C13  41723672.902                        2469.667          15.356  
C24  22444498.997   116874376.984        1829.694          28.499  
C26  21873220.185   113899562.437        -587.037          29.440  
C29  24903123.926   129677117.304       -1678.048          28.766  
C33  24832127.376                       -1054.916          19.804  
E03                                                                  24653217.233   129553581.766        -798.246          28.632    24653220.231                        -595.530          23.300  
E08                                                                                                                                  26379245.628   103517818.655        1415.710          28.849  
E10                                                                                                                                  26763954.600   105027513.726        1925.276          28.142  
E24                                                                                                                                  25293794.271    99258291.305       -1210.036          25.275  
E25                                                                  23579489.559                         658.298          22.247  
G06  23816615.200                        1583.711          19.836    23816606.207    93461515.1181       1180.344          20.500  
G11  24539054.766                        2911.429          21.090  
G12  20137595.133   105823777.341        -252.691          36.582  
G19  23538997.791                       -2733.614          22.479  
G22  23766126.553   124891888.674        3005.064          29.667  
G24  21208819.840                       -2056.759          21.735    21208827.035    83227984.056       -1536.729          28.753  
G25  20675118.513                        2108.050          22.696    20675124.209    81133627.336        1572.888          31.278  
G32  22053586.420   115892392.868        1467.867          30.663    22053582.523                        1096.942          21.861  
R05  21118425.818   112890012.095       -2189.497          29.820  
R14  20554251.188   109565727.441       -1680.939          33.168  
R15  19807094.934   105843125.226        1380.341          29.106  
R17  21930752.456                        4304.287          22.293  
R23  22608900.084   120942426.954       -2394.459          28.593  
R24  20827923.029   111376344.9721        980.530          28.990  
> 2022  9 17 22  8 57.9998064  0 24
C13  41723265.185                        2475.101          17.638  
C24  22444205.200   116872856.695        1832.509          27.757  
C26  21873391.966   113900459.372        -584.715          29.766  
C29  24903506.161   129679104.783       -1675.259          28.305  
C33  24832383.099                       -1052.361          21.820  
E03                                                                  24653427.088                        -793.880          28.451    24653430.685                        -593.699          22.781  
E08                                                                                                                                  26378944.337   103516636.138        1417.807          29.239  
E10                                                                                                                                  26763523.498   105025821.366        1927.649          28.696  
E24                                                                                                                                  25294163.315    99259734.376       -1207.781          27.025  
E25                                                                  23579419.408                         660.495          23.041  
G06  23816367.872                        1579.277          17.417    23816364.274                        1189.131          18.315  
G11  24538558.310                        2919.274          22.193  
G12  20137708.754   105824342.449        -250.023          36.606  
G19  23539572.793                       -2727.086          22.334  
G22  23765619.304   124889195.921        3007.837          29.971  
G24  21209272.826                       -2058.040          22.365    21209276.723    83229754.013       -1534.666          29.460  
G25  20674779.448                        2105.109          21.975    20674783.345    81132287.633        1574.993          31.502  
G32  22053367.571   115891237.591        1470.361          30.598    22053366.372                        1099.236          21.235  
R05  21118888.398   112892519.631       -2187.023          29.810  
R14  20554621.731   109567725.205       -1678.151          32.852  
R15  19806893.473   105842062.397        1383.229          29.168  
R17  21929971.497                        4309.424          23.898  
R23  22609401.337   120945139.685       -2391.994          28.591  
R24  20827801.313   111375682.679         982.917          29.393  
> 2022  9 17 22  8 58.9998066  0 24
C13  41722851.471                        2478.767          18.053  
C24  22443909.005   116871333.028        1835.886          27.013  
C26  21873560.749   113901353.256        -581.664          30.972  
C29  24903884.200   129681089.503       -1672.501          27.869  
C33  24832640.621                       -1048.799          22.919  
E03                                                                  24653637.242   129555800.2071       -792.722          28.471    24653639.940    96746222.4961       -591.731          20.985  
E08                                                                                                                                  26378642.446   103515451.418        1420.010          29.633  
E10                                                                                                                                  26763091.497   105024126.952        1929.704          28.757  
E24                                                                                                                                  25294529.961    99261174.992       -1205.325          28.832  
E25                                                                  23579356.151   123910296.9471        662.266          23.068  
G06  23816127.138                        1586.917          16.669    23816122.641                        1190.052          17.445  
G11  24538063.352                        2922.462          22.464  
G12  20137810.984   105824904.640        -247.108          36.857  
G19  23540157.388                       -2727.021          24.312  
G22  23765103.361   124886500.106        3010.899          30.624  
G24  21209725.213   111457851.0331      -2052.117          23.606    21209727.611    83231521.624       -1532.322          29.948  
G25  20674438.584                        2110.064          22.464    20674440.683    81130945.834        1577.089          32.034  
G32  22053144.526   115890079.487        1473.188          31.233    22053142.727                        1109.155          18.216  
R05  21119353.676   112895024.492       -2184.349          29.174  
R14  20554988.378   109569719.823       -1675.006          32.495  
R15  19806698.308   105840996.572        1386.225          27.633  
R17  21929229.510   117347661.9721       4307.327          25.813  
R23  22609914.582                       -2388.166          28.554  
R24  20827673.302   111375017.862         985.443          31.191  
> 2022  9 17 22  8 59.9998068  0 24
C13  41722441.655                        2480.054          16.047  
C24  22443617.607                        1837.707          26.564  
C26  21873734.329   113902245.919        -580.444          29.811  
C29  24904267.334   129683072.923       -1671.201          28.792  
C33  24832903.239                       -1046.527          21.883  
E03                                                                  24653849.195   129556906.791        -791.500          28.250    24653854.592                        -590.412          21.759  
E08                                                                                                                                  26378339.955   103514265.744        1420.965          28.941  
E10                                                                                                                                  26762659.197   105022431.347        1930.895          28.344  
E24                                                                                                                                  25294897.507    99262614.474       -1204.193          26.917  
E25                                                                  23579285.700                         663.566          21.853    23579288.998                         499.709          18.232  
G06  23815883.107                        1594.386          15.702    23815879.210                        1186.743          17.275  
G11  24537571.992                        2931.953          19.522  
G12  20137918.009   105825465.712        -245.988          36.549  
G19  23540726.994                       -2727.914          22.949  
G22  23764592.215   124883803.084        3012.106          30.104  
G24  21210179.698                       -2048.452          22.580    21210179.998    83233288.479       -1531.564          29.217  
G25  20674100.418                        2116.003          23.385    20674097.720    81129603.042        1578.082          31.252  
G32  22052925.977   115888920.385        1474.186          30.133    22052921.780                        1102.679          21.996  
R05  21119824.949   112897528.332       -2183.327          29.375  
R14  20555383.504   109571712.960       -1673.524          33.351  
R15  19806499.246   105839929.329        1387.643          28.640  
R17  21928484.826                        4310.218          23.805  
R23  22610417.034   120950558.8111      -2388.400          28.902  
R24  20827550.387   111374352.404         986.082          28.887  
> 2022  9 17 22  9  0.9998070  0 24
C13  41722027.641                        2474.424          15.128  
C24  22443331.005                        1836.354          24.704  
C26  21873904.611   113903138.553        -580.414          28.161  
C29  24904648.670   129685056.790       -1671.647          28.227  
C33  24833165.257                       -1051.861          20.950  
E03                                                                  24654060.849   129558013.672        -791.797          28.183  
E08                                                                                                                                  26378039.863   103513080.412        1420.622          28.515  
E10                                                                                                                                  26762225.996   105020736.027        1930.610          27.816  
E24                                                                                                                                  25295262.354    99264053.947       -1204.182          25.396  
E25                                                                  23579220.645                         663.490          20.168    23579216.148                         500.671          20.827  
G06  23815636.978                        1588.095          12.267  
G11  24537081.232                        2936.282          16.097  
G12  20138022.337   105826027.013        -246.217          36.182  
G19  23541309.790                       -2725.839          22.897  
G22  23764076.872   124881106.244        3011.924          30.004  
G24  21210621.292   111462582.6441      -2050.600          23.139    21210630.586    83235055.277       -1531.508          28.997  
G25  20673757.456   108641322.2441       2113.455          25.013    20673756.856    81128260.452        1577.880          31.708  
G32  22052704.430   115887761.888        1473.581          29.570    22052703.531    86539554.1201       1100.434          24.325  
R05  21120281.833   112900032.908       -2184.064          29.885  
R14  20555754.947   109573706.421       -1673.848          33.830  
R15  19806293.888   105838862.331        1387.399          28.932  
R17  21927714.059                        4309.985          23.840  
R23  22610922.784   120953268.430       -2388.882          29.318  
R24  20827421.776   111373687.537         985.492          27.107  
> 2022  9 17 22  9  1.9998071  0 23
C13  41721567.460                        2471.746          15.297  
C24  22443006.630                        1835.909          25.473  
C26  21874045.813   113903875.689        -581.027          31.161  
C29  24905000.027   129686885.085       -1672.185          29.899  
C33  24833401.194                       -1048.986          21.928  
E03                                                                  24654237.726                        -792.516          27.044  
E08                                                                                                                                  26377706.494   103511777.790        1420.267          29.886  
E10                                                                                                                                  26761765.515   105018923.189        1930.483          29.502  
E24                                                                                                                                  25295598.721    99265375.942       -1204.350          26.429  
E25                                                                  23579121.714                         684.592          17.707    23579120.215                         500.811          19.201  
G06  23815365.665                        1586.004          13.534  
G12  20138100.283   105826431.513        -246.958          37.520  
G19  23541863.207                       -2728.932          25.060  
G22  23763535.447   124878252.357        3011.428          30.037  
G24  21211043.700                       -2058.159          19.433    21211049.696    83236704.979       -1532.057          29.839  
G25  20673376.419                        2111.692          25.219    20673385.113    81126800.668        1577.429          32.535  
G32  22052453.504   115886446.543        1472.887          29.116  
R05  21120738.717   112902378.058       -2184.894          29.274  
R14  20556086.517   109575540.529       -1674.302          34.605  
R15  19806076.239   105837635.649        1386.881          29.937  
R17  21926960.681                        4306.930          21.558  
R23  22611400.653   120955818.562       -2389.763          29.095  
R24  20827276.377   111372863.634         984.216          29.793  
> 2022  9 17 22  9  2.9998073  0 23
C13  41721178.029                        2477.613          15.165  
C24  22442713.433   116865078.7191       1836.309          27.875  
C26  21874217.894   113904769.207        -581.298          29.122  
C29  24905380.764   129688870.149       -1672.845          29.571  
C33  24833654.219                       -1052.626          20.375  
E03                                                                  24654450.579   129560071.7191       -793.040          27.198    24654455.376                        -592.144          24.050  
E08                                                                                                                                  26377406.102   103510593.205        1419.875          30.350  
E10                                                                                                                                  26761334.114   105017228.498        1929.981          31.096  
E24                                                                                                                                  25295966.567    99266815.812       -1204.580          25.780  
E25                                                                  23579055.759                         686.211          19.140  
G11  24536047.548                        2916.380          22.734  
G12  20138207.609   105826994.086        -247.489          37.430  
G19  23542441.207   123716360.2991      -2728.596          27.468  
G22  23763020.703   124875556.540        3010.902          29.790  
G24  21211493.688                       -2057.071          22.731    21211500.584    83238472.723       -1532.454          27.898  
G25  20673035.255   108637571.1121       2111.839          27.129    20673042.451    81125458.951        1577.007          35.361  
G32  22052231.358   115885289.504        1472.123          28.695    22052237.054                        1092.286          19.255  
R05  21121199.798   112904884.375       -2185.804          28.279  
R14  20556463.656   109577534.789       -1674.648          34.113  
R15  19805871.181   105836569.691        1386.359          31.230  
R17  21926201.307                        4307.800          23.178  
R23  22611915.996   120958529.926       -2390.626          28.460  
R24  20827151.063   111372201.064         983.194          31.593  
> 2022  9 17 22  9  3.9998075  0 24
C13  41720754.423                        2479.463          20.400  
C24  22442420.536   116863554.634        1836.306          28.214  
C26  21874383.679   113905662.920        -581.494          27.998  
C29  24905763.599   129690855.407       -1673.038          29.888  
C33  24833924.332                       -1052.497          20.859  
E02                                                                                                                                  26008224.281                        1808.954          19.784  
E03                                                                  24654662.233   129561179.998        -793.195          26.526    24654665.530                        -592.029          23.536  
E08                                                                                                                                  26377103.611   103509408.739        1419.756          30.592  
E10                                                                                                                                  26760901.813   105015533.821        1929.967          32.085  
E24                                                                                                                                  25296333.813    99268255.589       -1204.487          26.127  
E25                                                                  23578985.308                         680.779          19.888  
G11  24535557.987   128935203.3371       2920.883          23.529  
G12  20138314.635   105827556.957        -247.787          38.182  
G19  23543020.706   123719404.120       -2728.737          28.475  
G22  23762509.557   124872860.876        3010.747          30.270  
G24  21211946.975   111469526.6211      -2052.271          24.312    21211949.973    83240240.627       -1532.614          28.379  
G25  20672694.691   108635774.535        2111.662          26.435    20672700.687    81124117.390        1576.851          34.396  
G32  22052012.210   115884133.001        1471.587          28.929  
R05  21121665.375   112907391.183       -2186.296          28.034  
R14  20556838.996   109579529.155       -1674.753          34.674  
R15  19805678.414   105835503.874        1386.216          31.402  
R17  21925454.823                        4311.310          23.564  
R23  22612413.952   120961241.733       -2391.070          27.344  
R24  20827017.056   111371539.160         982.530          31.436  
> 2022  9 17 22  9  4.9998077  0 25
C13  41720337.411                        2477.200          19.685  
C24  22442124.341   116862031.004        1835.849          28.886  
C26  21874555.161   113906557.031        -581.891          28.208  
C29  24906144.035   129692841.287       -1673.660          30.042  
C33  24834185.751                       -1051.002          20.944  
E02                                                                                                                                  26007825.257                        1805.615          19.181  
E03                                                                  24654874.186   129562289.093        -794.011          26.947    24654876.284    96751068.2721       -592.960          23.478  
E08                                                                                                                                  26376801.720   103508224.663        1419.366          31.142  
E10                                                                                                                                  26760469.812   105013839.495        1929.616          32.466  
E24                                                                                                                                  25296700.459    99269695.586       -1204.707          26.914  
E25                                                                  23578927.448                         673.141          20.757  
G06  23814641.367                        1583.016          22.949  
G11  24535060.931                        2920.641          23.612  
G12  20138425.558   105828120.481        -248.439          37.839  
G19  23543600.205   123722448.613       -2729.409          28.637  
G22  23761996.612   124870165.763        3010.197          30.506  
G24  21212403.259   111471894.664       -2052.959          25.860    21212402.659    83242008.981       -1533.064          28.192  
G25  20672356.525   108633978.576        2111.042          27.288    20672359.224    81122776.250        1576.430          34.547  
G32  22051792.462   115882977.188        1470.897          29.261  
R05  21122136.649   112909898.922       -2187.227          27.433  
R14  20557213.137   109581524.027       -1675.259          35.251  
R15  19805474.555   105834438.622        1385.652          31.314  
R17  21924718.233                        4308.250          24.584  
R23  22612910.708   120963954.525       -2392.054          26.496  
R24  20826895.041   111370878.484         981.301          31.365  
> 2022  9 17 22  9  5.9998079  0 25
C13  41719916.803                        2475.091          18.074  
C24  22441832.942   116860508.205        1835.018          27.769  
C26  21874728.141   113907451.962        -582.711          28.417  
C29  24906524.472   129694828.267       -1674.760          29.883  
C33  24834453.466                       -1053.545          21.075  
E02                                                                                                                                  26007420.837                        1808.636          20.576  
E03                                                                  24655085.839   129563399.139        -794.962          27.507    24655089.737                        -594.193          22.497  
E08                                                                                                                                  26376501.628   103507041.407        1418.546          31.570  
E10                                                                                                                                  26760037.811   105012145.882        1928.903          32.008  
E24                                                                                                                                  25297067.704    99271136.147       -1205.271          26.881  
E25                                                                  23578861.794                         664.638          19.504    23578862.993                         492.285          19.082  
G06  23814403.032                        1582.078          23.589  
G11  24534561.177                        2918.443          23.735  
G12  20138531.984   105828685.064        -249.499          38.117  
G19  23544180.603   123725494.088       -2730.390          28.855  
G22  23761482.768   124867471.681        3009.166          30.074  
G24  21212849.650   111474263.606       -2053.858          25.414    21212851.748    83243777.947       -1533.675          28.639  
G25  20672010.565   108632183.545        2110.115          26.767    20672017.460    81121435.833        1575.708          34.847  
G32  22051576.012   115881822.713        1469.559          28.721  
R05  21122610.321   112912408.054       -2188.619          27.109  
R14  20557596.572   109583519.750       -1676.110          35.238  
R15  19805266.200   105833374.333        1384.689          31.816  
R17  21923962.457                        4303.691          22.880  
R23  22613412.860   120966668.628       -2393.365          25.445  
R24  20826783.818   111370219.263         979.846          31.775  
> 2022  9 17 22  9  6.9998081  0 24
C13  41719494.995                        2479.757          19.520  
C24  22441540.944   116858986.710        1833.715          27.898  
C26  21874901.421   113908348.432        -584.251          28.954  
C29  24906908.806   129696816.763       -1676.277          29.644  
C33  24834710.987                       -1058.202          21.031  
E02                                                                                                                                  26007018.816                        1810.638          21.045  
E03                                                                  24655298.092                        -797.238          27.985    24655300.491    96752727.1171       -594.673          22.459  
E08                                                                                                                                  26376197.938   103505859.195        1417.502          31.056  
E10                                                                                                                                  26759607.010   105010453.263        1927.909          31.580  
E24                                                                                                                                  25297434.950    99272577.530       -1206.093          24.920  
G06  23814163.198                        1580.031          24.990  
G11  24534073.414                        2917.138          26.837  
G12  20138638.711   105829251.188        -251.040          37.951  
G19  23544757.404   123728540.923       -2731.751          28.644  
G22  23760969.523   124864778.902        3007.863          29.920  
G24  21213304.135   111476633.465       -2054.775          26.649    21213302.936    83245548.111       -1534.874          29.370  
G25  20671664.904   108630389.645        2108.984          26.970    20671675.996    81120096.568        1574.555          34.312  
G32  22051355.065   115880669.867        1467.930          28.005  
R05  21123067.804   112914918.915       -2190.349          27.361  
R14  20557965.916   109585516.855       -1677.493          34.144  
R15  19805068.336   105832311.496        1383.237          30.387  
R17  21923188.093                        4302.812          24.145  
R23  22613933.600   120969384.450       -2395.085          25.857  
R24  20826661.502   111369561.936         977.952          30.871  
> 2022  9 17 22  9  7.9998083  0 24
C13  41719080.681                        2474.955          21.062  
C24  22441248.647   116857466.796        1832.134          27.558  
C26  21875073.502   113909246.572        -585.921          29.753  
C29  24907289.542   129698807.120       -1678.138          28.999  
C33  24834975.404                       -1059.443          20.528  
E02                                                                                                                                  26006618.293                        1807.426          20.945  
E03                                                                  24655508.846   129565624.1951       -798.460          28.328    24655512.144                        -596.869          22.696  
E08                                                                                                                                  26375898.146   103504678.382        1416.103          30.940  
E10                                                                                                                                  26759175.308   105008761.894        1926.659          31.977  
E24                                                                                                                                  25297806.393    99274020.201       -1207.381          23.812  
G06  23813921.865   125143002.1631       1579.141          25.791  
G11  24533583.554   128924788.3341       2916.796          27.366  
G12  20138746.036   105829819.205        -252.933          37.757  
G19  23545339.001   123731589.718       -2733.711          28.520  
G22  23760457.777   124862087.992        3005.995          30.120  
G24  21213754.423   111479005.750       -2057.200          27.727    21213755.623    83247319.595       -1536.195          30.168  
G25  20671324.640   108628597.986        2106.743          28.343    20671334.233    81118758.638        1573.220          34.081  
G32  22051135.017   115879519.110        1465.841          28.034  
R05  21123541.776                       -2193.440          27.802  
R14  20558341.856   109587515.720       -1679.253          33.423  
R15  19804877.069   105831250.407        1381.489          30.305  
R17  21922473.987                        4303.853          24.678  
R23  22614435.452   120972102.508       -2397.321          26.037  
R24  20826536.189   111368907.054         975.507          30.545  
> 2022  9 17 22 20  9.9999181  0 24
C10  41175062.597                        -599.563          17.294  
C24  22254725.574   115886200.019        1647.947          36.006  
C26  21998394.928   114551385.991        -806.568          31.438  
C29  25175665.849                       -1994.741          21.223  
E02                                                                  25743437.689   135282678.4961       2308.053          32.045    25743444.584                        1723.411          25.767  
E03                                                                  24811517.844   130385460.450       -1123.299          25.021    24811525.338    97365753.7181       -838.674          27.546  
E08                                                                                                                                  26190872.536   102778590.437        1187.780          27.123  
E10                                                                                                                                  26483858.206                        1747.551          18.969  
E24                                                                  25542422.049   134226333.3461      -1713.095          27.819    25542425.347   100233962.522       -1279.331          26.292  
G02  24887302.979                        3283.866          19.209  
G06  23675450.127   124415351.265        1167.296          24.944    23675459.720    92907544.5941        871.569          26.221  
G12  20226363.980                        -583.983          25.466  
G19  23941899.668                       -2995.503          17.710  
G22  23434271.591                        2720.589          21.377  
G24                                                                  21525298.146    84469892.880       -1742.514          25.142  
G25  20459758.104   107516774.260        1804.377          26.816    20459760.802    80288499.783        1347.023          31.523  
G29  23911567.566   125656134.7391       4045.395          24.407  
G32  21929777.231   115241777.857        1010.752          27.815  
R05  21460388.282                       -2672.797          23.707  
R14  20815465.753   110958130.465       -1899.622          32.385  
R15  19685037.732                        1112.102          20.549  
R17  21443432.321   114748137.6551       3992.920          30.047  
R23  22975754.616                       -2869.930          22.153  
R24  20780190.673   111121191.585         334.028          29.294  
> 2022  9 17 22 20 10.9999183  0 22
C10  41175231.980                        -594.095          14.944  
C24  22254473.748   115884863.932        1648.307          34.268  
C26  21998612.278   114552504.403        -806.193          29.421  
C29  25176117.936   131098633.1281      -1991.093          24.612  
E02                                                                  25743058.152   135280685.090        2308.490          31.736    25743065.047                        1724.961          25.673  
E03                                                                  24811793.653   130386898.446       -1122.912          24.768    24811796.651    97366827.606        -838.598          24.817  
E08                                                                                                                                  26190629.405   102777637.715        1188.012          28.407  
E24                                                                  25542807.282                       -1711.207          27.103    25542810.280   100235476.624       -1278.812          25.453  
G02  24886743.266                        3285.592          16.465  
G06  23675292.136   124414499.009        1167.340          26.145    23675294.235    92906908.175         871.709          24.927  
G12  20226526.167   106291155.7621       -582.122          26.390  
G19  23942526.534                       -2999.728          19.183  
G22  23433808.412                        2721.828          20.033  
G25  20459476.299   107515285.126        1804.218          28.132    20459474.501    80287387.751        1347.322          30.254  
G29  23910864.253   125652404.019        4045.804          24.230  
G32  21929645.023   115241082.112        1010.829          28.670  
R05  21460939.301                       -2674.342          22.777  
R14  20815875.269   110960349.389       -1899.311          34.892  
R15  19684900.727                        1118.394          22.919  
R17  21442761.685   114744465.595        3992.910          28.123  
R23  22976352.102                       -2870.940          21.237  
R24  20780197.569   111121178.568         333.642          32.097  
> 2022  9 17 22 20 11.9999185  0 23
C24  22254212.030   115883524.333        1651.818          33.949  
C26  21998825.730   114553619.279        -802.656          28.656  
C29  25176557.132   131100933.055       -1987.708          25.755  
E02                                                                  25742681.313   135278687.995        2312.179          32.147    25742684.610   101019825.4191       1726.720          25.686  
E03                                                                  24812069.462                       -1118.329          23.470    24812072.460                        -835.040          23.998  
E08                                                                                                                                  26190387.172   102776682.527        1190.479          28.486  
E10                                                                                                                                  26483085.342   103925332.1651       1748.955          22.847  
E24                                                                  25543191.317   134230385.0731      -1708.867          27.187    25543195.214   100236988.163       -1276.249          26.102  
G02  24886173.361                        3285.455          15.864  
G06  23675127.550   124413643.587        1170.506          26.699    23675130.848                         876.807          25.068  
G12  20226699.148   106292049.830        -578.983          25.027  
G19  23943156.698                       -2998.077          19.649  
G22  23433345.532                        2722.903          20.215  
G24  21526296.155   113121449.7621      -2329.571          23.616  
G25  20459191.197   107513792.776        1807.434          29.377    20459192.696    80286273.384        1349.657          30.491  
G29  23910152.246   125648669.521        4049.582          24.438  
G32  21929514.613   115240383.218        1013.978          29.345    21929517.011    86056121.2791        757.294          24.892  
R05  21461499.613                       -2667.058          22.406  
R14  20816295.279   110962564.767       -1895.766          34.809  
